Police Station,Year,Type,Date,Time,Place,Latitude,Longitude
Banashankari,2016,Murder,29-07-16,21:00,"22nd Cross, Jayanagara 6th Block Bangalore",12.93297,77.58381
Banashankari,2016,Murder,13-11-16,23:45,"On the Road of 30th Cross, Opp Vinayaka texttile, 4th Block Jayanagara Bangalore",12.930433,77.549761
Banashankari,2017,Murder,10-05-17,21:00,"No. 282, 36th Cross Jayanagara 7th Block Bangalore",12.923736,77.58182
Banashankari,2017,Murder,19-07-17,19:30,"Near Transfaram, Opp Amejan, Kanakapura Main Road, Jayanagara 7th Block Bangalore",12.924123,77.576913
Banashankari,2018,Murder,21-06-18,23:30,"No. 53, 2nd Floor, 8th Main 4th Block Jayanagar Bangalore",12.924377,77.582729
Banashankari,2018,Murder,17-07-18,21:15,"Ambedkar road Rajarajeshwari Slum, Shakambari Nagar Bangalore",12.920604,77.520557
Banashankari,2015,Murder,27-08-15,9:30,"Near Krishnarao Park, Divan Madava Rao Road, Basavanagudi , Bangalore.",12.940662,77.574095
Banashankari,2016,Murder,18-06-16,21:00,"No.36-1, 2nd Floor Khazee Street, Basavanagudi , Bangalore.",12.93878218,77.57956109
Banashankari,2017,Murder,02-07-17,18:30,"Nettakallppa BBMP Play Ground, Behind Ganesha Team, Basavanagudi , Bangalore.",12.9399013,77.57337112
Banashankari,2019,Murder,29-07-19,18:00,"No 69 Krishna Road out houes, Basavanagudi , Bangalore.",12.944557,77.57758
Banashankari,2015,Murder,07-01-15,6:00,"No.A8
304 Elita Apartment, JP
Nagar 7th Phase,
Bengaluru City,
Karnaka -560078",12.9076508,77.5951967
Banashankari,2015,Murder,26-01-15,4:10,"Newly Construction
Building of Kirnakumar,
Near Adigas Hotel, BG
Road, Panduranganagar,
Bengaluru City,
Karnaka-560076",12.9076508,77.5951967
Banashankari,2015,Murder,08-11-15,8:00,"Infront of House no 110,
6th Cross KR Layout
jpnagar 6th phase,
Bengaluru City, Karnaka",12.9030543,77.5813948
Banashankari,2016,Murder,16-05-16,7:30,"Newly Construction
buildingNext to
Siddlingeshwara, 17th cross
jpnagar 6th phase,
Bengaluru City,
Karnaka-560078",12.9036647,77.5785439
Banashankari,2016,Murder,06-09-16,9:15,"House No.19 Near
Jaraganahalli Park, Jp
nagara 6th Phase,
Bengaluru City,
Karnaka-560078",12.9004589,77.5684636
Banashankari,2016,Murder,11-09-16,2:50,"Lakshmi, 78 old no 32
1st floor 14th A cross, Vivers
colony Sarakki JPnagar 1st
phase,
Bengaluru City,
Karnaka -560078",12.909427,77.5706543
Banashankari,2016,Murder,21-11-16,2:20,"House No-126-2, 4th
Cross, Sarakki Garden,, JP NAGAR 6th Phase, karnaka",12.9039655,77.5804308
Banashankari,2018,Murder,01-01-18,2:00,"ON FOOTPH, IN
FRONT OF BALAJI WINES
STORE,, 15TH CROSS, J
P NAGAR, Bengaluru City,
Karnaka",12.9039653,77.5738647
Banashankari,2018,Murder,01-01-18,2:15,"In Front of Balaji Rise
Traders, 7th Cross,,
Shakambari Nagar,
J.P.Nagar 1st Phase,
Bengaluru City,
Karnaka-560078",12.9124543,77.5737283
Banashankari,2019,Murder,25-08-19,1:30,"IN FRONT OF
PRUDENCE AUTO
GARRAGE, 19TH MAIN, J
P NAGAR 2ND PHASE,
Bengaluru City,",12.9108342,77.5866704
Banashankari,2019,Murder,25-08-19,2:30,"IN FRONT OF NO. 822, 24TH MAIN, J P NAGAR 2ND PHASE. BANGALORE-78",12.9071236,77.583816
Banashankari,2016,Murder,25-03-16,21:40,"No-3335, Govt School
opp,, Cauveri nagar,
Banashankari 2nd stage,
Bengaluru City,","12°55'3.65""N","77°34'6.67""E"
Banashankari,2016,Murder,26-04-16,8:15,"No. 46, Sapalamma
Temple Road,,
Kadirenahalli, Banashankari
2nd Stage, Bengaluru City,
Karnaka","12°54'55.52""N","77°33'43.22""E"
Banashankari,2016,Murder,08-05-16,6:15,"#NA, Bhavani Nagara , Bsk 2nd Stage, Bengaluru","12°54'54.21""N","77°33'57.57""E"
Banashankari,2016,Murder,23-05-16,0:45,"Front of Guljar House,
Banday Hall, 3rd Cross,,
Anand Timber Road,
Kaveeri Nagagr, BSk 2nd
Stage, Bengaluru City,","12°55'10.75""N","77°34'26.57""E"
Banashankari,2016,Murder,02-12-16,22:30,"Tolet Back Side 9th main
Yarbnagar, Banshnakari
2nd Stage, Bengaluru City,",12.91986,77.56931
Banashankari,2017,Murder,09-02-17,19:00,"No.419 9th Main Road
24th Cross, BSK 2nd Stage,
Bengaluru City,","12°55'29.68""N","77°34'9.51""E"
Banashankari,2017,Murder,27-11-17,11:00,"#7-1,1st main, 7th cross,
Padmanabha nagara,
Bengaluru City,",12.958864,77.638363
Banashankari,2015,Murder,23-07-15,16:00,No 223 K.M.Colony Jayanaagar 1st Block Bengaluru.,12.946595,77.59197
Banashankari,2015,Murder,23-12-15,16:30,Near Papanna Hotel Daynanda nagar slum Jayanagar 1st Block Bengaluru.,12.945264,77.59271
Banashankari,2016,Murder,10-04-16,22:00,Near Arif office 2nd Cross Arekempanahalli Jayanagar 1st Block Bengaluru.,12.946042,77.593699
Banashankari,2016,Murder,16-05-16,21:30,"No 4-3, 2nd Cross Arekempanahalli Jayanagar 1st Block Bengaluru.",12.946042,77.593699
Banashankari,2019,Murder,22-06-19,2:00,Near Babulal Tea Hotel Dayananda Nagar 1st Block Jayanagar Bengaluru.,12.944408,77.593165
Banashankari,2015,Murder,05-02-15,6:30,EMPTY SITE CAVERY HOTEL BIHIND CHUNCHAGHTA MAIN ROAD BANGLORE,12.89050892,77.57361002
Banashankari,2015,Murder,09-02-15,15:00,NO 25.10 TH CROSS CHUNCHAGHTA MAIN ROAD BIRESHWRA NAGAR BANGLORE,12.90976685,77.55679873
Banashankari,2015,Murder,15-03-15,16:45,NO 525. SAMUDAYABHAVANA ROAD VASANTHPURA BANGLORE,12.901082,77.54753806
Banashankari,2015,Murder,26-03-15,21:45,NO NIL. C-R NAGAESH HOUSE VADDARAPALLY JAMBUSAVARI DINNE JP NAGARA BANGLORE,12.86854765,77.5801126
Banashankari,2015,Murder,20-05-15,9:45,NO 69. 6TH CROSS 2ND MAIN MANJUNH NAGARA 2ND MAIN BANGLORE,12.90958449,77.55159728
Banashankari,2016,Murder,01-01-16,,NO 03.3RD FLOOR 1ST MAIN SREYUS COLONY JP NAGARA 7TH PHASE BANGLORE -56,12.88328789,77.58130555
Banashankari,2016,Murder,01-09-16,,KABAB MAHALA KOTTANURU DINNE MAIN ROAD JP NAGARA 7TH CROSS BANGLORE,12.8776868,77.58071703
Banashankari,2016,Murder,04-10-16,,NO 68. NAIONAL ENGLISH SCHOOL BIRESHWARANAGARA BANGLORE,12.8887116,77.57377343
Banashankari,2016,Murder,08-12-16,,NO 17. BENAKA 15 A CROSS AGS LAYOUT BANGLORE CITY,12.89537161,77.55032355
Banashankari,2016,Murder,16-08-16,,NO 08.C-O SHIVARAMA NEAR GOVT SCHOOL CHUNCHANGHTA KONANAKUNTE POST BANGLORE-62,12.90932828,77.5437415
Banashankari,2016,Murder,23-10-16,,SHIVA SHAKTI RICRION FRONT NEAR VINAYAKA THETRA HARINAGARA BANGLORE,12.87932828,77.5737415
Banashankari,2016,Murder,16-11-16,,"NO NIL, KUMARA RENT HOUSE, SMASANA ROAD BURIYAL GROUND ROAD CHUNCHAGHTA MAIN ROAD BANGLORE",12.90714279,77.53486998
Banashankari,2017,Murder,26-02-17,20:10,NO 30.1`ST MAIN 1ST CROSS KAKIYANAGARA NAIDU LAYOUT CHIKKALSANDRA BANGLORE CITY -61,12.90245473,77.54181407
Banashankari,2017,Murder,12-03-17,21:00,NO NEAR LABOUR SHED GUBLALA GE KANAKA PURA MIAN ROAD DODDAKALASANDRA BANGLORE -62,12.88563257,77.5482591
Banashankari,2017,Murder,26-04-17,23:50,NO ITTUMADU MAIN ROAD AGS LAYOUT BANGLORE 61,12.88948381,77.56232091
Banashankari,2017,Murder,13-10-17,3:00,"NO SEURITY GURD HOUSE FRONT, NEAR MARUTHI LAYOUT PARK 80FEET ROAD MARUTHI LAYOT VASANTHPURA BANGORE 61",12.90108207,77.54753806
Banashankari,2018,Murder,12-01-18,22:30,NO 36. 1ST MAIN 3RD CROSS JAYARAJA BI;DING KENGERI MAIN ROAD HEMAVHI LAYOUT BANGLORE 61,12.9057223,77.53558126
Banashankari,2018,Murder,10-06-18,3:00,NO NEAR CANARA BANK KONANAKUNTE CROSS BANGLORE,12.88289563,77.56647782
Banashankari,2018,Murder,28-09-18,10:30,EMPTY SITE BIHIND ISCON TEMPLE YADALAMANAGARA BANGLORE 61,12.8967726,77.5445644
Banashankari,2019,Murder,08-05-19,13:00,NO 637. JI RAJESHAWARI NILAYA 2ND FLOOR 7 C CROSS SINDICE BANK ROAD VALLABHANAGARA DOADDAKALSANADRA BANGLORE,12.91082367,77.54398174
Banashankari,2019,Murder,14-07-19,21:45,"PRHANA SCHOOL , NEAR TIRUMALA MESS & BEKARI CHIKKLASANDRA BANGLORE",12.913512,77.554144
Banashankari,2019,Murder,05-10-19,17:30,NO 20-4. 4TH CROSS FLOWER DECORION GOWDANA AREHALLI BANGLORE,12.91084893,77.53745649
Banashankari,2015,Murder,22-02-15,15:00,"BDA Layout, BSK 6th Ste, Lingadinahalli, Bengaluru.",12.87583,77.511157
Banashankari,2015,Murder,17-03-15,5:00,"Bhuvaneshvari Nagra, Gubbalal, Bangalore.",12.894725,77.542178
Banashankari,2015,Murder,29-03-15,16:00,"No.26-19, 3rd Cross, 2nd Maim Tippasandra, Bangalore.",12.874853,77.554205
Banashankari,2016,Murder,14-01-16,14:45,"No.1014, 4th ""T"" Block, Manovarte kaval, Banashankari 6th Stage, Bangalore.",12.860873,77.520947
Banashankari,2017,Murder,17-01-17,12:30,"New Construction Eligant Apt, Pipeline Road, Vrushabhavi Nagar, BSK 6th Stage, Bangalore.",12.864755,77.528047
Banashankari,2017,Murder,13-04-17,12:15,"No.28-7, Govindappa Building, 2nd Floor, Library Road, 3rd Cross, Talaghtapura, Bangalore.",12.871198,77.536856
Banashankari,2017,Murder,24-04-17,10:00,"No.01, 24th Main, 4th Block, BDA Layout, Lal Bahaddura Shastrinagar, Anjanapura Post, Bangalore.",12.853954,77.553705
Banashankari,2017,Murder,05-08-17,4:00,"BDA Road, Avalahalli, 2nd Block, 9th Phase, JP Nagar, Bangalore.",12.870574,77.571346
Banashankari,2017,Murder,17-08-17,5:00,"Chandana Aunty House, Back Side of Asian School, Balagi Lay out, Thalaghtapura, Bengaluru City",12879498,77.542792
Banashankari,2017,Murder,22-08-17,4:00,"100 Feet Road, Front of Bairaveshavar Tendors Reshmenagar, GanigaraPlaya Bangalore.",12.87548,77.535128
Banashankari,2018,Murder,17-01-18,22:00,"80 Feet Road, BDA Layout, Lalabahaddur Shastri Nagar, Anjanapura post, Bangalore.",12.870129,77.556345
Banashankari,2018,Murder,14-07-18,21:00,"Site No.72, Astalaxmi Layout, Hosahalli Bangalore.",12.878193,77.535515
Banashankari,2018,Murder,19-09-18,18:00,"Site No.72, Astalaxmi Layout, Hosahalli Bangalore.",12.848726,77.572816
Banashankari,2018,Murder,16-10-18,19:00,"Tejas Cement Godown, Gurusiddeshvara Theer, Avalahalli, Anjanapura Post, Bangalore.",12.872393,77.557753
Banashankari,2018,Murder,27-10-18,10:10,"BDA Quarters, Avalahalli, Anajanapura Post, Bangalore.",12.871255,77.56033
Banashankari,2018,Murder,03-11-18,20:00,"80 Feet Road, Near KSIT College, Raghuvanahalli, Bengaluru City",12.879671,77.54543
Banashankari,2019,Murder,19-08-19,14:00,"Near campound, 80 feet road, 3 th block , Bangalore.",12.859739,77.562719
Banashankari,2019,Murder,14-10-19,1:00,"No-491, 13th main, G block, Anjanapura, B.D.A Layout, Bangalore.",12.862041,77.563487
Banashankari,2019,Murder,17-11-19,20:30,"Vinayaka Nagara, 2 th Main, Gubbalala, Subramanyapura, Bangalore.",12.893051,77.543007
Banashankari,2017,Murder,13-01-17,,"Harinagar cross,kothanur main road,konanakunte",12.879223,77.567169
Banashankari,2017,Murder,04-03-17,1:30,"Telephone exchange road,new bank calony",12.882152,77.565325
Banashankari,2017,Murder,29-07-17,8:45,"Muneshwara layout ,wavers calony ,bangalore",12.84488,77.583729
Banashankari,2017,Murder,01-11-17,15:00,"6th main ganaphipura,chunchaghta main road bangalore",12.890277,77.57144
Banashankari,2017,Murder,18-11-17,0:00,"Beside of harishachandra home near anad medical store ,chunchaghta main road ,bangalore",12.885583,77.57054
Banashankari,2018,Murder,07-09-18,4:30,"No 3,3rd cross opp RR bar and resturent ,chunchaghta main road beereshwara nagar ,bangalore-62",12.889932,77.57465
Banashankari,2018,Murder,01-10-18,0:00,"Security guard room,sushila residency 4th main ,1st cross royal county ,jp nagar 8th phase bangalore-83",12.861345,77.579767
Banashankari,2018,Murder,21-11-18,23:50,"Infront of Chaitra bar,7th cross weavers calony bangalore-",12.845887,77.583885
Banashankari,2019,Murder,13-06-19,16:10,"Near kothanur lake ,kteramma layout ,kothanur village bangalore-",12.873733,77.579546
Banashankari,2017,Murder,30-04-17,11:30,"Infront Of KVM Industries,St.Anthony Industrial, Jaraganahalli,JP Nagar, Bengaluru","12°53'59.96""N","77°34'25.59""E"
Banashankari,2017,Murder,07-05-17,16:00,"SITE NO 165-B 5TH MAIN CLASSIC ARCHID LAY OUT, J P NAGARA, Bengaluru",12.875176,77.57889
Banashankari,2017,Murder,27-08-17,16:15,"No 96, Govindappa Building, Annayappa Garden, Jaraganahalli J P Nagara 6th
Phase, Bengaluru City",12.898898,77.576405
Banashankari,2017,Murder,08-10-17,8:00,"Narayana Swamy's Thotada Mane,, Shamanna Garden JP Nagara 5th Phase,
Bengaluru City,",12.906331,77.59179
Banashankari,2017,Murder,25-11-17,4:00,"BBMP Office Terrace, Ward NO 187, Doresanipalya, Bengaluru City",12.90903,77.58764
Banashankari,2018,Murder,02-05-18,17:30,"No 8-1 20th Main 19th Cross, Rajagopalareddy Layout J P Nagar 5th Phase,
Bengaluru City,",12.906448,77.587569
Banashankari,2019,Murder,05-08-19,18:45,"ELITA PROMANADE APARTMENT, JP NAGAR 7TH PHASE, Bengaluru City",12.89643,77.578607
Banashankari,2019,Murder,26-11-19,10:30,"NO-41, 1ST FLOOR, MAKKA MASZID ROAD, 4TH MAIN, VINAYAKA NAGARA,
JP NAGARA 5TH PHASE, Bengaluru City",12.901612,77.586583
Banashankari,,Murder,02-01-15,21:00,"Honganoor Village, Chennapna Tq, Ramanagar Dist(Missing From 847, 51st Main, 25th Cross, K.S.Layout, Bvangalore)",12.89667299,77.56075138
Banashankari,,Murder,30-04-15,6:00,"No 27, 2nd Main, Knakapura Main Road, Ramakrishnanagar, Bangalore",12.90509645,77.571337
Banashankari,,Murder,11-06-15,5:00,"Near Metro Stion, Sarakki Signal, J.P.Nagar, Bangalore",12.90769453,77.57198522
Banashankari,,Murder,11-01-16,11:00,"No 3276, 1st Floor, 5th Cross, 8th Main, Near Om Shakthi Temple, Chandranagar, Bangalore",12.90089276,77.56988137
Banashankari,,Murder,07-05-16,13:45,"12th Cross, K.S.Layout, Chandranagar, Bangalore",12.90233856,77.56532528
Banashankari,,Murder,31-07-16,21:30,"Hari Colony, Banashankari, Bangalore",12.91449059,77.57210648
Banashankari,,Murder,26-04-17,15:00,"No 27, 1st Floor, 11th Cross, Bendrenagar, Bangalore",12.91054686,77.56074553
Banashankari,,Murder,27-08-17,15:00,"Old Alfa Factory Kashinagar, Bangalore",12.89939856,77.57258495
Banashankari,,Murder,05-02-18,18:30,"Pooja Apts, 2nd Main, Najnappa Layout, Yelachenahalli, Bangalore",12.90233333,77.5689282
Banashankari,,Murder,30-04-18,16:30,"No 587, 8th Cross, Praghipura, Bangalore",12.91436911,77.57331064
Banashankari,,Murder,25-08-18,1:30,"Near RK Bar & Restourant, Kadirenahalli, Bangalore",12.91553593,77.56162582
Banashankari,,Murder,24-03-19,5:30,"Gangothri Pavithra Pyaradise Building, Indian Oil Petrol Bunk, Uttarahalli Main Road, Bangalore",12.91420724,77.5618648
Banashankari,,Murder,08-06-19,0:30,"HT Line Road, Iliyasnagar, K.S.Layout, Bangalore",12.90617125,77.56984584
Banashankari,,Murder,12-11-19,7:30,"No 522, Bike Turning Centre Garage, Umarbangh Layout, Iliyasnagar, 100 Feet Ring Road, Bangalore",12.89645157,77.56024331
Banashankari,2016,Murder,23-06-16,17:00,"ANANTHARAMU LAND VEERABHADRANAGARA GUDDE, BSK 3RD STGE,
Bengaluru City, Karnaka, 560085",12.937792,77.537268
Banashankari,2017,Murder,08-01-17,8:30,"NO 5, 21ST MAIN GIRINAGAR BSK 3RD STAGE B-85",12.939585,77.544317
Banashankari,2017,Murder,21-04-17,9:10,"NO 32, SHARADA SHEVASHRAMA ASHRAMA OPP PES COLLEGE VEERABHADRANAGAR BSK 3RD STAGE B-85",12.937792,77.537268
Banashankari,2018,Murder,19-07-18,13:00,"NO-1227, 5TH COSS, 17TH MAIN, MUNESHWAR BLOCK, Bengaluru City,
Karnaka, 560085",12.93586,77.54388
Banashankari,2018,Murder,08-04-18,3:00,"TEJESH CEMENT GODOWN, NEAR GURUSIDDESWAR THEER,
AVALAHALLI, ANJANAPURA, Bengaluru City, Karnaka,",12.946026,77.544111
Banashankari,2018,Murder,09-07-18,15:00,"CYBER CAFE, NEAR RAGHAVENDRAMUTT, GIRINAGAR, Bengaluru City,
Karnaka, 560085",12.940271,77.542692
Banashankari,2016,Murder,15-04-16,4:00,"kempegowda swimming pool opp,lakshimipura, k.g. nagar bangalore",12.94865677,77.56227641
Banashankari,2017,Murder,07-07-17,22:00,"NO.210 2nd cross, D.T. EXT, KG Nagar Bangalore",12.94953,77.56316
Banashankari,2017,Murder,14-07-17,17:00,"Sanyashikuntte Quras, K.G. nagar Main Road, bangalore-19",12.94953,77.56316
Banashankari,2015,Murder,15-09-15,18:30,"Near maruthi transport, 4th main, nt pet, b-lore",12.96053995,77.57161726
Banashankari,2016,Murder,05-05-16,17:45,"No 10, 1st main, 2nd cross, MV Lane, Parvhipura, B-lore",12.95608437,77.57561273
Banashankari,2016,Murder,26-06-16,18:45,"under Metro fly over, VV Puram, B-lore",12.94870298,77.5787416
Banashankari,2018,Murder,09-08-18,19:45,"Near Room No 404, Trishala hotel, Sajjan rao road, VV Puram, B-lore",12.94863301,77.57586657
Banashankari,2015,Murder,3-15-2015,22:00,"IN FORNT OF KAMALA NURSING HOME, HANUMANTHNAGAR, Bengaluru City",12.564056,77.333036
Banashankari,2016,Murder,12-20-2016,23:45,"Near PES College Srinagar, Bengaluru, Bengaluru City, Karnaka, 560050",12.941281,77.55467
Banashankari,2017,Murder,8-27-2017,21:30,"Near Udaya Ravi Studio, Kalappa Block, Srinagar, Bengaluru City, Karnaka,",12.94725,77.55428
Banashankari,2018,Murder,11-23-2018,7:45,"Near Shekar Hospital, Gavipuram Extention, Hanumantha Nagar, Bengaluru City,",12.945897,77.567461
Banashankari,2019,Murder,04-12-19,23:00,"No.54,1st Main, 1st Cross, Kalidasa Layout, Srinagar, Bengaluru City, Karnaka,",12.94885,77.55255
Banashankari,2015,Murder,4-14-2015,,"No. 33, 6th Main, 5th Cross, Laksmnappa Garden, BSK 3rd Stage, Bangalore.",12.928925,77.56106
Banashankari,2015,Murder,12-05-15,,"Ramakrishna Tent House, Khriguppe, BSK 3rd Stage, Bangalore-85.",12.929754,77.551246
Banashankari,2016,Murder,09-04-16,1:00,"2nd Main Road, Siddartha Layout, Khriguppe, BSK 3rd Stage, Bngalore-85.",12.930313,77.554418
Banashankari,2016,Murder,23-06-16,5:00,"No. 17, 4th Cross, Anjaneyanagar, behind Srinivasa Choultry, Ittamadu, BSK 3rd Stage, Bangalore-85.",12.926431,77.544097
Banashankari,2016,Murder,26-06-16,4:00,"NO. 95, 5th main, Khriguppe East, BSK 3rd Stage, Bangalore-85.",12.9289,77.554688
Banashankari,2018,Murder,10-03-18,11:30,"infront of BBMP Office Both Room Building, C.K. Achuktu, BSK 3rd Stage, Bangalore-85.",12.930848,77.562656
Banashankari,2018,Murder,4-23-2018,6:15,"Anjaneya Temple Road, Balajinagar, Ittamadu, BSK 3rd Stage, Bangalore-85.",12.920708,77.545062
Banashankari,2018,Murder,30-09-18,1:00,"No. 14, 14th Cross, T.G. Layout, Ittamadu, BSK 3rd Stage, Bangalore-85.",12.921084,77.540512
Banashankari,2019,Murder,29-04-19,4:00,"No. 76-77, 8th Cross, Bhovi Colony, T.R. Nagar, Bangalore-28",12.931413,77.566018
Banashankari,2019,Murder,11-09-19,9:45,"Infront of Balaji Traders, C.K. Textiles, Ittamadu Main Road, BSK 3rd Stage, Bangalore-85.",12.920844,77.543006
Banashankari,2019,Murder,23-09-19,4:30,"No. 277, 3rd Cross, Manjunha Nagar, Ittamadu, BSK 3rd Stage, Bangalore-85.",12.923045,77.541396
Banashankari,2019,Murder,13-11-19,1:00,"NO. 110-15, 2nd Main, P.P. Layout, BSK 3rd Stage, Bangalore-85.",12.93336,77.550661
Banashankari,2016,Attempted Murder,10-02-16,7:00,"No 556, 10th A Main road, 35th Cross, 5th Block, Jayanagara Bangalore",12.971599,77.594563
Banashankari,2016,Attempted Murder,09-11-16,13:30,"Banashankari Circle, Kanakapura Main Road Bangalore",12.80642,77.52537
Banashankari,2017,Attempted Murder,15-01-17,10:15,"No.1-22, Kalappa Block, Bugle Rock Road, Basavanagudi",12.88605,77.494843
Banashankari,2017,Attempted Murder,21-01-17,23:50,"Near Ragavendra Temple, 46th Cross, Jayanagara 5th Block Bangalore",12.921755,77.588346
Banashankari,2017,Attempted Murder,12-06-17,7:35,"18th Main, 36th F Cross Jayanagara 4th T Block Bangalore",12.922076,77.5589539
Banashankari,2018,Attempted Murder,22-05-18,18:00,"Illunoise Pvt. Ltd, No. 121-24, 7th B Main, 13th Cross, Jayanagara 4th Block Bangalore",12.835635,77.653354
Banashankari,2018,Attempted Murder,13-08-18,16:45,"No-466, 8th B Main road 4th Block Jayanagar Bangalore",12.925635,77.583354
Banashankari,2018,Attempted Murder,30-11-18,20:00,"Kanakapura main road, Infront of Modern Tiles, Near JSS Circle, 7th Block Jayanagar Bangalore",12.28784,76.63313
Banashankari,2018,Attempted Murder,02-12-18,16:25,"Shakambari Nagara, RR Nagara Slum, Kanakapura Main Road, Opp Banashankari Temple Bangalore",12.79642,77.50537
Banashankari,2019,Attempted Murder,28-04-19,19:30,"BEHIND MARIYAMMA TEMPLE, SHAKHAMBARI NAGAR Bangalore",12.93443,77.592697
Banashankari,2015,Attempted Murder,01-02-15,23:15,"K R Road, Top of the Under Pass. Near Basavanagudi",12.943773,77.573418
Banashankari,2015,Attempted Murder,10-08-15,10:30,"No 51, Embessy Apartment, K R Road, Basavanagudi , Bangalore.",12.941212,77.57344
Banashankari,2016,Attempted Murder,03-05-17,11:00,"Sout End Road, Nagasandra Circle Down,Basavanagudi , Bangalore.",12.941716,77.573891
Banashankari,2017,Attempted Murder,09-05-17,13:45,"No,503 Ram mandir road Near Trinity hospital, Basavanagudi , Bangalore.",12.94452287,77.5788835
Banashankari,2017,Attempted Murder,11-09-17,11:30,"No.8-2,8-3, Palamma Temple Road,Basavanagudi , Bangalore.",12.941946,77.574073
Banashankari,2017,Attempted Murder,09-11-17,0:15,"Near No.4-228, 3rd Main Road, Ta Silk Form, Basavanagudi , Bangalore.",12.935305,77.572075
Banashankari,2018,Attempted Murder,12-02-18,21:15,"Mokambika School, Basavanagudi , Bangalore.",12.93699,77.566649
Banashankari,2018,Attempted Murder,14-02-18,21:15,"Shivasagr hotel Near xerox shop, Basavanagudi , Bangalore.",12.944247,77.572678
Banashankari,2018,Attempted Murder,17-05-18,11:30,"South Tindis, Kariyappa Road, Basavanagudi , Bangalore.",12.938602,77.575583
Banashankari,2019,Attempted Murder,07-07-19,19:12,"No61, Uday, Govidappa Road,Basavanagudi , Bangalore.",12.946432,77.578244
Banashankari,2019,Attempted Murder,19-11-19,14:30,"Dodda Ganaphi Temple compound inside,Basavanagudi , Bangalore.",12.942962,77.568212
Banashankari,2015,Attempted Murder,29-04-15,4:05,"Cube No 7A054 7th floor
Oracle software company,
krishna magnum
Doresanipalya arkere
micolayout, Bengaluru City,
Karnaka-5600762",12.9071234,77.5772499
Banashankari,2015,Attempted Murder,11-05-15,23:46,"Near Karnaka Bank,
9th Cross,, JP Nagar 2nd
Phase, Bengaluru City,
Karnaka-560078",12.9021964,77.5472
Banashankari,2015,Attempted Murder,02-09-15,22:50,"111 20th cross, KR
Layout jpnagar 6th phase,
Bengaluru City",12.9047055,77.5868222
Banashankari,2015,Attempted Murder,13-10-15,23:01,"NERA GKM
COLLEAGE GROUND,
RAJIVGANDHI ROAD",12.8996863,77.5719224
Banashankari,2015,Attempted Murder,29-10-15,8:35,"Near HDFC Ltd Door,
No-40, Old No-1383-1384,,
East End E' Main,
Jayanagar 9th Block,
Bengaluru City,",12.91655,77.5945793
Banashankari,2015,Attempted Murder,25-12-15,21:45,"Opp Cool Joint Bekari,
Near Jaraganahalli Park,,
JP Nagar 6th Phase,
Bengaluru City,
Karnaka-560078",12.9165477,77.5617482
Banashankari,2016,Attempted Murder,04-03-16,22:01,"infront of pushpa wines,
Near IG Circle jpnagar 1st
phase, Bengaluru City,
Karnaka-560078",12.9111818,77.5739301
Banashankari,2016,Attempted Murder,31-03-16,15:35,"Club, 2nd floor, beside
Davanagere benne dose,
building, Kanakapura main
road jpnagar Ist phase,
Bengaluru City,
Karnaka-560078",12.8896959,77.543055
Banashankari,2016,Attempted Murder,29-08-16,17:01,"Near Siddalingeshwara
Theer Jp Nagara, 6th
Phase, Bengaluru City,
Karnaka-560078",12.9036647,77.5785439
Banashankari,2016,Attempted Murder,05-09-16,11:30,"Near HDFC Bank M,
9th Cross,, JP Nagar 1st
Phase, Bengaluru City,
Karnaka-560078",12.9423522,77.5027961
Banashankari,2016,Attempted Murder,20-10-16,13:15,"3rd main road, dhanapal
reddy house road,, Sarakki,
JP Nagar 1st phase,
Bengaluru City,
Karnaka-560078",12.909427,77.5706543
Banashankari,2016,Attempted Murder,22-10-16,22:45,"KEB Road, Near
Sindhura Kalyana Mantapa,
J P Nagar 1st Phase,
Bengaluru City,
Karnaka",12.9093248,77.5591563
Banashankari,2016,Attempted Murder,09-12-16,0:00,"Akshaya bar, J P Nagar
7th Phase, Bengaluru City,
Karnaka",12.8879049,77.5774295
Banashankari,2017,Attempted Murder,08-05-17,22:01,"Near Bekary, Opp
Diwakar Hospital, 9th Cross,
J P Nagar 2nd Phase,
Bengaluru City,
Karnaka-560078",12.8879043,77.5621085
Banashankari,2018,Attempted Murder,27-03-18,18:20,"NEAR MOSQUE, 7TH
MAIN, RAGIGUDDA
SLUM, J P NAGAR 2ND
PHASE, Bengaluru City,
Karnaka",12.8879031,77.5621085
Banashankari,2018,Attempted Murder,12-06-18,18:30,"11th main,9th cross,My
drive service stion, J P
Nagar 1st phase, Bengaluru
City,
Karnaka-560078",12.9105665,77.571023
Banashankari,2018,Attempted Murder,28-08-18,11:20,"NO.281-1, 1ST FLOOR,
9TH MAIN, 7TH CROSS,
BEHIND, SHAKAMBARI
TEMPLE,SHAKAMBARINAGAR, JPNAGAR 1ST PHASE, BANGALORE, KARNAKA.",12.9125802,77.5731949
Banashankari,2019,Attempted Murder,26-01-19,18:40,"IN FRONT OF SHOP,
BESIDE MILKBOOTH,OPP
PETROL BUNK, 9TH
CROSS, J P NAGAR 2ND
PHASE, Bengaluru City,
Karnaka",12.9125802,77.5731949
Banashankari,2019,Attempted Murder,28-03-19,3:00,"In front of Sri Balaji
Provision Store, No 16-5,,
14th E Cross, Near
Sindhura Convention Hall,
Jpn, Bengaluru City,
Karnaka-560078",12.9263748,77.5664358
Banashankari,2019,Attempted Murder,14-04-19,1:00,"25TH MAIN, LIC
COLONY,, J P NAGAR 1ST PHASE, Bengaluru City, KARNAKA",12.9122435,77.5829634
Banashankari,2019,Attempted Murder,20-04-19,17:00,"HKS SHASTRY,
NO.1835-A, 34TH CROSS,,
BSK 2ND STAGE,
Bengaluru City,
Karnaka",12.9204433,77.5663689
Banashankari,2015,Attempted Murder,03-01-15,1:15,"Ambhedkar Nagar,,
Banashankari 2nd Stage,
Bengaluru City,","12°55'3.64""N","77°33'49.98""E"
Banashankari,2015,Attempted Murder,28-02-15,20:00,"BANASHANKARTI
TRAFFIC SINGAL, NAER
BMTC BUS STAND,
BANASHANKARI 2ND
STAGE, Bengaluru City,","12°55'3.12""N","77°34'24.16""E"
Banashankari,2015,Attempted Murder,01-03-15,14:30,"Near Ayyappa swamy
Temple, Anand Timbar
Road,, Kaveri Nagara,
Banashankari 2nd Stage,
Bengaluru City,","12°55'10.75""N","77°34'26.57""E"
Banashankari,2015,Attempted Murder,07-04-15,17:45,"Near Anjaneya Temple,
A.K Colony, K.R Road,
Banashankari 2nd Stage,
Bengaluru City,","12°55'45.40""N","77°34'25.14""E"
Banashankari,2015,Attempted Murder,17-04-15,21:00,"NO-164-D, 1ST FLOOR,
K R ROAD, TA Shilk
Form, Bengaluru City,","12°56'9.55""N","77°34'28.85""E"
Banashankari,2015,Attempted Murder,19-05-15,13:30,"Banshankari 2nd stage
Near Post office, Bengaluru
City, Karnak","12°55'41.94""N","77°33'51.82""E"
Banashankari,2015,Attempted Murder,09-10-15,13:00,"No, 2685, 17th D Cross,,
Near B.B.M.P Swimming
Pul BSK 2nd Stage,
Bengaluru City,","12°55'40.70""N","77°34'11.52""E"
Banashankari,2015,Attempted Murder,04-11-15,22:30,"10TH CROSS ANANDA
TIMBER ROAD, NEAR
AYYAPPA TEMPLE,
,CAUVERY NAGAR,
BANASHANKRI 2ND
STAGE,, Bengaluru City,","12°55'10.79""N","77°34'25.18""E"
Banashankari,2015,Attempted Murder,25-12-15,18:10,"No 2241, 23rd cross,
Banshankari 2nd stage,
Bengaluru City,","12°55'26.11""N","77°34'16.67""E"
Banashankari,2015,Attempted Murder,31-12-15,15:00,"No. 2241, 23rd Cross,
Banshankari 2nd stage,
Bengaluru City,","12°55'26.11""N","77°34'16.67""E"
Banashankari,2016,Attempted Murder,01-06-16,15:30,"Near Shalini Hotel
Padhmanabhanaga,
Banshankari 2nd stage,
Bengaluru City,","12°54'56.05""N","77°33'24.38""E"
Banashankari,2016,Attempted Murder,24-06-16,21:00,"No-58, 2nd Cross,
Ambedkar Nagar,
Banashanakri 2nd Stage,
Bengaluru City,","12°55'11.17""N",77°34'14.98
Banashankari,2016,Attempted Murder,16-07-16,21:00,"Near Karesandra
maeedi, Karesandra,
Banashankari 2nd Stage,
Bengaluru City,","12°55'18.20""N",77°34'24.78
Banashankari,2016,Attempted Murder,16-07-16,21:30,"Karesandra Maseed,
Banshankari 2nd Stage,
Bengaluru City,","12°55'18.20""N",77°34'24.78
Banashankari,2016,Attempted Murder,31-07-16,23:30,"Kanakapur Main, Near
Hunsemar, Kaveeri Nagar,
BSK 2nd Stage, Bengaluru
City,","12°55'10.75""N","77°34'26.57""E"
Banashankari,2016,Attempted Murder,31-08-16,21:00,"Near Megana Shalini
appartment
Maheshwarammemple,
Road Subaramanayapura
main Raod, Bengaluru City,","12°55'1.60""N","77°33'45.66""E"
Banashankari,2016,Attempted Murder,30-09-16,0:30,"8th Main, 22nd Cross,
Junction,, BSK 2nd Stsge,
Bengaluru City,","77°34'19.68""E","77°34'25.60""E"
Banashankari,2016,Attempted Murder,12-11-16,10:30,"NO, 44-42, 11th Main,
17th Cross, Padmanabha
Nagar, BSK 2nd Stage,
Bengaluru City,","12°54'56.05""N",77°33'24.38
Banashankari,2016,Attempted Murder,16-12-16,11:45,"Near Raghavendra
Temple, BSK 2nd Stage,
Bengaluru City,","12°55'36.30""N",77°33'48.98
Banashankari,2016,Attempted Murder,22-12-16,22:15,"100 fit Ring Road,
Kadirenhalli, BSK 2nd Stag,
Bengaluru City,","12°55'10.22""N","77°33'47.85""E"
Banashankari,2017,Attempted Murder,03-05-17,17:00,"Infront Krishna Grand
Hotel Monotype, BSK 2ND
STAGE, Bengaluru City,",12.87974,77.50031
Banashankari,2017,Attempted Murder,27-06-17,9:30,"Near Kutty Stand,
Ambedkar Nagar, 2 Stang,
Banshanakrai, Bengaluru
City","12°55'3.12""N","77°34'24.16""E"
Banashankari,2017,Attempted Murder,27-06-17,10:00,"Near Ambdkar Nagar,, 2
Stage, Banashankari,
Bengaluru City,","12°55'5.33""N","77°34'19.83""E"
Banashankari,2017,Attempted Murder,01-10-17,6:00,"NO 29-10, 14A CROSS, 2ND A MAIN ROAD,
BANASHANKARI 2ND
STAGE,, Bengaluru City,",12.92957,77.57276
Banashankari,2017,Attempted Murder,08-11-17,23:45,"#NA, Near Uday
Cering, Brigade M.M road,
Yadiyuru, Jayanagara 6th
block, Bengaluru City,",12.91851,77.58122
Banashankari,2017,Attempted Murder,09-11-17,5:00,"#NA,Near Banashankari
Fire stion, Banashankari
2nd stage, Bengaluru City,",12.87974,77.50031
Banashankari,2017,Attempted Murder,09-11-17,8:00,"Pootph, Near BBMP
Hospital, Yediyur, 7 Block,
Jayanagar, Bengaluru City,","12°55'38.80""N","77°34'36.95""E"
Banashankari,2017,Attempted Murder,16-11-17,10:45,"Banashankari Barial
Ground, 2 Stage,
Banashankari, Bengaluru
City,","12°55'5.33""N","77°34'19.83""E"
Banashankari,2018,Attempted Murder,15-01-18,18:15,"#NA, Near Smt Jalli
store, 3rd cross, Yarab
nagara, BSK 2nd stage,
Bengaluru City,",12.89066,77.575524
Banashankari,2018,Attempted Murder,08-04-18,10:50,"Kala Kutera Chikkakalasandra Ground, , Bengaluru City, Karnaka,","12°55'3.12""N","77°34'24.16""E"
Banashankari,2018,Attempted Murder,12-04-18,15:30,"Kaverinagar 3rd Cross
Bande Hall, Banashnakari
2nd stage, Bengaluru City,","12°55'3.12""N","77°34'24.16""E"
Banashankari,2018,Attempted Murder,07-09-18,9:30,"Near Kadirenahalli Park,
2nd Stage, Banashankari,
Bengaluru City,","12°55'4.22""N","77°33'51.21""E"
Banashankari,2018,Attempted Murder,04-12-18,9:45,"Subramanyapur Main
Road Near 4th Main,
Banashankari 2nd stage,
Bengaluru City,","12°55'3.12""N","77°34'24.16""E"
Banashankari,2019,Attempted Murder,11-03-19,13:15,"Near Banashankari bus
stand, Kanakapura main
road, BSK 2nd stage,
Bengaluru City,",13.01965,77.60673
Banashankari,2019,Attempted Murder,25-05-19,17:30,"No. 441-601 4th main
4th Cross, Shrinagar,
Bengaluru City,",,
Banashankari,2019,Attempted Murder,13-06-19,9:30,"Near kadirenahalli
Bridge Under pass, 2nd
Stage, Banashankari,
Bengaluru City,","12°55'4.22""N","77°33'51.21""E"
Banashankari,2019,Attempted Murder,12-04-18,15:45,"Kaverinagar 3rd Cross
Bande Halla Banashnakari
2nd stage, Bengaluru City,","12°55'10.75""N","77°34'26.57""E"
Banashankari,2019,Attempted Murder,29-10-19,20:40,"Near Bhaskar Hotel,
Kaveri Nagar, BSK2nd
stage, Bengaluru City,","12°55'10.75""N","77°34'26.57""E"
Banashankari,2015,Attempted Murder,22-03-15,14:30,J.C. Colony Lalbhagh Siddapura Jayanagar 1st Block Bengaluru.,12.944814,77.587996
Banashankari,2015,Attempted Murder,11-04-15,14:00,Psychiric Ward Nimhans Hospital Hosur Main Road Bengaluru.,12.942789,77.596405
Banashankari,2015,Attempted Murder,22-07-15,18:30,Near Alfa Hotel Someshwara Nagar Jayanagar 1st Block Bengaluru.,12.946042,77.593699
Banashankari,2015,Attempted Murder,06-08-15,21:00,"No 18, 3rd cross 1st Main Byrasandra Jayanagar 1st Block Bengaluru.",12.93481,77.591525
Banashankari,2015,Attempted Murder,11-08-15,0:15,Near ABCD Park Jayanagar 1st Block Bengaluru.,12.945283,77.58671
Banashankari,2015,Attempted Murder,16-08-15,20:30,Nimhans Hospital Bengaluru.,12.942789,77.596405
Banashankari,2015,Attempted Murder,03-09-15,20:00,"No 65, 8th main 5th cross Byrasandra Jayanagar 1st Block Bengaluru.",12.934073,77.592244
Banashankari,2015,Attempted Murder,06-09-15,20:00,Dayananda Slum Borgalli Siddapura Jayanagar 1st Block Bengaluru.,12.944485,77.591988
Banashankari,2015,Attempted Murder,03-10-15,9:15,Near Aralikte Lalbhagh Siddapura Jayanagar 1st Block Bengaluru.,12.945602,77.588022
Banashankari,2015,Attempted Murder,17-11-15,21:00,Infront of Axis m K.M.Colony Siddapura Jayanagar 1st Block Bengaluru.,12.946595,77.59197
Banashankari,2016,Attempted Murder,08-03-16,13:15,"No 282, 4th main J.C.Colony Siddpaura Jayanagar 1st Block Bengaluru.",12.944814,77.587996
Banashankari,2016,Attempted Murder,20-03-16,13:00,Near Venkesha Nursery J.C.Colony Siddpaura Jayanagar 1st Block Bengaluru.,12.944814,77.587996
Banashankari,2016,Attempted Murder,26-04-16,4:00,Near Mayya Hospital T.Mariyappa Road Jayanagar 1st Block Bengaluru.,12.942707,77.585262
Banashankari,2017,Attempted Murder,14-06-17,4:30,"No 26, Gundappa Layout Byrasandra Jayanagar 1st Block Bengaluru.",12.935847,77.593125
Banashankari,2017,Attempted Murder,06-07-17,20:45,Dayananda Slum Near Flag Siddapura Jayanagar 1st Block Bengaluru.,12.944265,77.593685
Banashankari,2017,Attempted Murder,19-12-17,14:00,Wambe Qtrs Lalbhagh Siddapura Jayanagar 1st Block Bengaluru.,12.945058,77.591578
Banashankari,2018,Attempted Murder,25-10-18,10:45,"No 27, 4th cross, 5th main K.M.Colony 1st Block Jayanagar Bengaluru.",12.9446676,77.592128
Banashankari,2018,Attempted Murder,28-11-18,17:00,Inside of Vijaya College R.V.Road 2nd Block Jayanagar Bengaluru. Bengaluru.,12.941015,77.580237
Banashankari,2018,Attempted Murder,24-12-18,20:00,"6th cross, Guttepalya 1st Block Jayanagar Bengaluru.",12.9446676,77.592128
Banashankari,2019,Attempted Murder,06-01-19,15:00,Near Relance Digital Office Jayanagar 2nd Block Bengaluru.,12.938585,77.58509
Banashankari,2019,Attempted Murder,18-02-19,9:45,"No 1, 4th cross, V.R.Nagar 1st Block Jayanagar Bengaluru.",12.946428,77.591183
Banashankari,2019,Attempted Murder,27-02-19,13:30,Near Lalbhagh Dubble Road Ge 1st Block Jayanagar Bengaluru.,12.951431,77.590558
Banashankari,2019,Attempted Murder,08-04-19,12:00,Wambe Qtrs Siddapura 1st Block Jayanagar Bengaluru.,12.945058,77.591578
Banashankari,2019,Attempted Murder,07-08-19,12:00,Arekempanahalli Someshwara Nagar 1st Block Jayanagar Bengaluru.,12.946042,77.593699
Banashankari,2019,Attempted Murder,09-12-19,21:00,"No 145, 5th cross, Someshwaranagar 1st Block Jayanagar Bengaluru.",12.942008,77.593672
Banashankari,2019,Attempted Murder,10-12-19,21:30,Near Indira Canteen Byrasandra 1st Block Jayanagar Bengaluru.,12.936049,77.592597
Banashankari,2019,Attempted Murder,22-12-19,16:30,Near Public Toilet Lakkasandra Bus stop Bengaluru.,12.943814,77.59715
Banashankari,2015,Attempted Murder,21-01-15,12:30,KONANAKUNTE TRAFIIC SINGLE NEAR GUBBALALA KANAKAPURA MAIN GE BANGLORE,12.89062558,77.56405571
Banashankari,2015,Attempted Murder,30-04-15,15:00,"NO 36-A, ANNAPOOR MEDICAL AND GENERAL STORE JSS SCHOOL ROAD GANAPIPURA BANGLORE",12.89117067,77.5699034
Banashankari,2015,Attempted Murder,22-05-15,19:45,REAL ESTEE OFFICE NAGARAJA CANARA BANK ROAD KONANAKUNTE CROSS BANGLORE 62,12.88290759,77.56690606
Banashankari,2016,Attempted Murder,11-01-16,21:15,5TH B CROSS OM NEAR SHAKTI TEPMLE HANUMAGIRI NAGARA CHIKLASANDRA BANGLORE,12.917986,77.553778
Banashankari,2016,Attempted Murder,31-01-16,10:00,NO 496. 9TH MAIN ROAD 3RD CROSS SRINIDI LAYOUT KONANAKUNTE BANGLORE,12.90759817,77.53481056
Banashankari,2016,Attempted Murder,22-02-16,8:15,GOVT SCHOOL FRONT VENKTESHWARA IAYANAGARA BEKARI CHIKLLASANDRA BANGLORE,12.91273921,77.54878858
Banashankari,2016,Attempted Murder,2-24-2016,,NO 59-5. 1ST MAIN ROAD 2ND CROSS GOWRAVANAGARA JP NAGARA 7TH STAGE BANGLORE,12.90944142,77.55721452
Banashankari,2016,Attempted Murder,29-02-16,17:40,GOWDANAPALLY NEAR SRINIVASA THETRE BANGLORE,12.90913455,77.55325268
Banashankari,2016,Attempted Murder,07-03-16,22:45,GOWDANAPALLY BANGLORE,12.90862205,77.55531561
Banashankari,2016,Attempted Murder,30-03-16,12:15,"NO NIL, NEAR YALLAMMA TEMPLE CHUNCHAGHTA VILLAGE BANGLORE",12.88867402,77.57312221
Banashankari,2016,Attempted Murder,07-04-16,14:35,,12.88867402,77.57312221
Banashankari,2016,Attempted Murder,25-06-16,20:00,,12.9046755,77.53001756
Banashankari,2016,Attempted Murder,07-08-16,20:45,RADHAKRISHAN ROAD GANAPI PURA BANGLORE,12.89572496,77.5719447
Banashankari,2016,Attempted Murder,09-10-16,,1ST CROSS RBI LAYOUT JP NAGARA 7TH STAGE BANGLORE,12.88812763,77.58114661
Banashankari,2016,Attempted Murder,11-17-2016,,NICE ROAD VADDARAPALLY BANGLORE -61,12.91134545,77.53812371
Banashankari,2016,Attempted Murder,11-21-2016,,NO YAKSHI BRMALINGESWARA CANDIMENTS 10TH CROSS BRITE WAYS SCHOOL RAOD GOWDANAPALLY BANGLORE,12.89246857,77.57540769
Banashankari,2017,Attempted Murder,06-06-17,23:45,"NO AREHALLIARCH NEAR, UTTARAHALLI BANGLORE -61",12.91102435,77.53917778
Banashankari,2017,Attempted Murder,15-09-17,10:00,SAMASTH HOSPITAL FRONT 2ND CROSS YADALAMANAGARA UTTARAHALLI BANGLORE,12.89900112,77.544042
Banashankari,2017,Attempted Murder,04-10-17,22:15,AUTO STAND UTTARAHALLI NEAR UTTRAHALLI BANGLORE,12.90827601,77.55022679
Banashankari,2017,Attempted Murder,08-10-17,21:30,NO BALAJI WINS NEAR AREHALLI ARCH KEMGERI MAIN ROAD AREHALLI UTTARAHALLI BANGLORE,12.91422266,77.53929427
Banashankari,2017,Attempted Murder,08-12-17,7:30,"VASANTHPURA BUS STOP NEAR, SAGARALENDS APPERTMENT SRI MARUTHI LAYOUT BANGLORE",12.8997408,77.54951691
Banashankari,2018,Attempted Murder,04-02-18,18:15,"NO 5TH MAIN , RAINBO TAILER SHOP BIHIND APPAYASWAMY LAYOUT BANGLORE",12.91739661,77.54533797
Banashankari,2018,Attempted Murder,28-02-18,18:02,1ST CROSS 1ST MAIN SARVABOUMANAGARA CHIKLASANDARA BANGLORE,12.91022894,77.5481594
Banashankari,2018,Attempted Murder,14-04-18,13:45,NO BHCS LAYOUT UTTARAHALLI BANGLORE,12.90471042,77.54488816
Banashankari,2018,Attempted Murder,08-12-18,21:00,NO 198.1STMAIN NEAR GANESH TEMPLE CHIKKA GOWDANAPALLY BANGLORE,12.90988782,77.55763608
Banashankari,2019,Attempted Murder,14-01-19,12:15,AA COLLECTION PADUSH MANDIRA ROAD PP LAYOUT BANGLORE,12.9057223,77.53558126
Banashankari,2019,Attempted Murder,18-02-19,10:30,9TH CROSS 10 TH MAIN NEAR FINANCE RK LAYOUT PADMANABHANAGARA BANGLORE,12.88520621,77.56866459
Banashankari,2019,Attempted Murder,13-03-19,8:00,IN FRONT OF BRAMINS COFFEE KTE UTTARAHALLI MAIN ROAD BANGLORE,12.904425,77.528388
Banashankari,2019,Attempted Murder,03-04-19,21:00,IN FRONT DK CHIKEN CENTRE NEAR DEASAYI GARDON KONANKUNTE CROSS BANGLORE,12.89062558,77.56405571
Banashankari,2019,Attempted Murder,08-03-19,,"NO NIL, KR HOSPITAL 5TH CROSS SAMUDRA LAYOUT BALAJI NAGARA UTTARAHALI MAIN ROAD BANGLORE",12.9144943,77.55021425
Banashankari,2019,Attempted Murder,25-10-19,0:45,INSIDE OF GYM ROAYAL BAR AND RESORENT BISIDE ROTI GUR DABHA PP LAYOUT UTTARAHALLI BANGLORE,12.9057223,77.53558126
Banashankari,2019,Attempted Murder,30-12-19,17:30,AREHALLI ARCH KENERI MAIN ROAD UTTARAHALLI BANGLORE,,
Banashankari,2015,Attempted Murder,02-01-15,13:15,"Near Ramanna Vhar Anjaneya Temple Road, Gubbalala, Bengalore",12.885536,77.542507
Banashankari,2015,Attempted Murder,20-03-15,21:00,"Ashvhrams House, Vajramuneshvar Temple Road, Talaghtapura, Bangalore.",12.870927,77.536764
Banashankari,2015,Attempted Murder,05-04-15,21:00,"Jtigara village, Kodipalya Post, Kengeri Hobli, Bangalore.",12.891626,77.496854
Banashankari,2015,Attempted Murder,14-05-15,14:00,"Near Shell petrol Bunk, kanakapura Main Road, Talaghtapura, Bangalore.",12.862772,77.531239
Banashankari,2015,Attempted Murder,17-09-15,20:30,"Manjushree Bar, 100 Feet Road, Ganigarapalya, Bangalore.",12.876155,77.53255
Banashankari,2015,Attempted Murder,15-10-15,9:30,"Kendriya Nagar, Ganigarapalya, Bangalore.",12.872936,77.528647
Banashankari,2016,Attempted Murder,30-03-16,17:00,"Near Vajarahalli, Kanakapura Main Road, Bangalore.",12.874927,77.542694
Banashankari,2016,Attempted Murder,29-06-19,11:00,"Kanakapura main Road, Talaghtapura, Bangalore.",12.870315,77.5375
Banashankari,2016,Attempted Murder,08-08-16,15:00,"Near Nurullah Sound System, Avalahalli Village, Anjanapura Post, Bangalore.",12.872491,77560741
Banashankari,2016,Attempted Murder,08-08-16,15:30,"Near Big Masjid Avalahalli, Bangalore.",12.872491,77560741
Banashankari,2016,Attempted Murder,28-09-16,13:00,"PG 2n Cross, Manjunh Nagar, Raghuvanahalli, Bangalore.",12.876095,77.546538
Banashankari,2016,Attempted Murder,25-11-16,0:15,"Near RV college, 100 Feet Road, BSK 6th Stage, Bangalore.",12.879245,77.512528
Banashankari,2016,Attempted Murder,28-11-16,17:00,"No.110, 4th cross, JHBC Layout, gubbalal, Bangalore.",12.891048,77.542411
Banashankari,2016,Attempted Murder,03-12-16,7:00,"Near Somapura Market, Near Shanimahman Temple, Subramanyapura Main Road, Gubballa Bangalore.",12.88374,77.501315
Banashankari,2017,Attempted Murder,01-02-17,22:30,"No.404, Nityanand Nilay, 9th Cross, 11th Main, 5th ""G"" Block, Anjanapura layout, Lalbahaddur Shastri Nagar, Bangalore.",12.856318,77.559623
Banashankari,2017,Attempted Murder,27-02-17,23:15,"No,.13, Bhuvandeshvari Nagar, Subrumanyapura Post Bangalore.",12.895099,77.542102
Banashankari,2017,Attempted Murder,11-04-17,1:00,"Kido Enterprises, Nagegowdanpalya, Talghtapura, Bangalore.",12.869881,77.525669
Banashankari,2017,Attempted Murder,17-05-17,13:30,"Rajannas Land, Near Rachanamadu, Bangalore.",12.868478,77.521805
Banashankari,2017,Attempted Murder,10-06-17,14:45,"Front Of RK Enterprises Front O Marikamaba Temple, Ganigarapalya 100 Feet Road, Bangalore.",12.877804,77.533739
Banashankari,2017,Attempted Murder,16-08-17,10:30,"Mudroad, Pipeline Road, Bsk 6th Stage, 4""T""Block, Bangalore.",12.863084,77.526325
Banashankari,2017,Attempted Murder,19-11-17,12:10,"Sri Sai Juice & candiments, 80 Feet Road, Gubbala, Banglore",12.880893,77.543751
Banashankari,2017,Attempted Murder,26-11-17,22:00,"Bovi colony , 2n d Cross, Ganigarapalya, Bangalore.",12.874507,77.529564
Banashankari,2018,Attempted Murder,11-02-18,12:00,"Capital Club, 80 Feet Road Anjanapura Bangalore.",12.853218,77.553667
Banashankari,2018,Attempted Murder,01-04-18,8:30,"BSK 6th Stage, 5th block, BDA Layout, Bangalore.",12.881532,77.511282
Banashankari,2018,Attempted Murder,18-06-18,21:15,"Near Hosahalli Temple, 100 feet Road, Banglore.",12.877385,77.534077
Banashankari,2018,Attempted Murder,11-09-18,23:30,"Swadeshi Family reort Kanakapura Main Road, Bangalore.",12.867237,77.535278
Banashankari,2018,Attempted Murder,26-10-18,13:00,"No.09, 1st Cross, Near Wer Tank, ""H"" Gollahalli, Bangalore.",12.878813,77.482329
Banashankari,2018,Attempted Murder,22-11-18,18:30,"No.36, VG Pannerudas, & Compony, Property, KRB Road Anjanapura, Bangalore.",12.85092,77.557048
Banashankari,2019,Attempted Murder,07-04-19,3:45,"Near Panchami Kandi Manthri, Raghuvanahalli,Anajanapura, Bangalore.",12.880754,77.549448
Banashankari,2019,Attempted Murder,04-09-19,18:30,"Nandi Sheldar Apportment, Jayanagara Housing Bord Socity Thurahalli, Gubbalala, Bangalore.",12.895797,77.536992
Banashankari,2019,Attempted Murder,05-09-19,6:30,"Near Nice Road , Rushabavi Nagara, 6 th stage, 4 th B block, Bangalore.",12.865399,77.520688
Banashankari,2019,Attempted Murder,17-09-19,14:00,"Near Nagegowdanapalya, B.D.A Layout, Near Nice road, Bangalore.",12.865652,77.516896
Banashankari,2017,Attempted Murder,31-05-17,9:00,"No.13-14,7th cross ,beereshwara nagar ,rbi lay out bangalore",12.881457,77.573157
Banashankari,2017,Attempted Murder,02-07-17,12:30,"80 feet road ,vaishali bar ,kembh halli road bangalore",12.85708,77.577065
Banashankari,2017,Attempted Murder,12-10-17,22:30,"1 main ,muneshwarappa layout ,jaraganahalli jp nagar bangalore",12.899251,77.576456
Banashankari,2017,Attempted Murder,02-12-17,23:00,"5th cross,near govt rion depo,kothanur dinne,bangalore",12.88967,77.571871
Banashankari,2017,Attempted Murder,03-12-17,0:10,"Near govt school,jambusavari dinne,bangalore",12.871945,77.57484
Banashankari,2018,Attempted Murder,05-02-19,15:20,"opp HP gas,kembh halli main road bangalore",12.855507,77.587458
Banashankari,2018,Attempted Murder,30-03-19,4:15,"No.1335 6th G cross anajneya street,chunchaghta main road ganaphipura bangalore",12.888075,77.570911
Banashankari,2018,Attempted Murder,11-04-18,9:40,"No.7-1,9th main 14 th cross,kothanur main road ,shreenidhi layout bangalore",12.88245,77.575277
Banashankari,2018,Attempted Murder,26-05-18,19:00,"Near Brookes heaven layout,royal county ,80 feet road jp nagr 8 th phase bangalore",12.871945,77.57484
Banashankari,2018,Attempted Murder,02-07-18,20:54,konanakunte amruth nagar main road bangalore-62,12.881966,77.566281
Banashankari,2018,Attempted Murder,31-07-18,13:10,"12 Th cross weavers calony near maramma temple ,gottigere bangalore",12.84856,77.58442
Banashankari,2018,Attempted Murder,25-08-18,5:30,"Hunchin mane bar and resturent,near bk circle jambusavari dinne bangalore",12.870638,77.583264
Banashankari,2018,Attempted Murder,26-04-18,17:00,"No.199,sri veebhadra swamy nilaya doddakallasandra,kanakapura main road bangalore",12.881012,77.57636
Banashankari,2019,Attempted Murder,05-02-19,21:00,"No.526,banashankari steel,chunchaghta main road ,chunchaghta circle bangalore",12.88967,77.571871
Banashankari,2019,Attempted Murder,30-03-19,7:00,"Narayan nagar double road ,bangalore",12.878993,77.557886
Banashankari,2019,Attempted Murder,31-03-19,7:15,"Kokonet garden near ,kteramma lyout bangalore",12.880183,77.567401
Banashankari,2019,Attempted Murder,03-04-19,21:10,"Yelachenahalli metro stastion, kanakapur main road ,bangalore",12.896392,77.570185
Banashankari,2019,Attempted Murder,04-04-19,7:00,"Near petrol bunk ,yelachenahalli ,kanakapura main road ,bangalore",12.89639,77.570185
Banashankari,2019,Attempted Murder,30-05-19,23:15,"No.78,siddalingappa farm ,muneshwara extension ,pillaganahalli,bangalore",12.840624,77.580569
Banashankari,2019,Attempted Murder,20-11-19,16:30,"Near sudha shree bar and resturent, chunchaghta main road bangalore",12.88818,77.570987
Banashankari,2019,Attempted Murder,25-11-19,12:30,"from pillaganahalli to maruthi layout cross turn ,bangalore",12.843536,77.5836
Banashankari,2017,Attempted Murder,24-01-17,0:30,"NEAR PUTTENAHALLI LAKE, J.P NAGARA, Bengaluru City,","12°53'27.96""N.","77°35'13.79""E"
Banashankari,2017,Attempted Murder,12-02-17,7:45,"NEAR HARISH HOUSE, SRINIVASA CHOWTRY ROAD, JARAGANAHALLI, J.P
NAGARA, Bengaluru City,",12.899.88,77.573054
Banashankari,2017,Attempted Murder,06-03-17,18:00,"Near Ganesh Temple, Arakere Mico Layout, Bengaluru City","12°54'20.87""N","77°36'1.18""E"
Banashankari,2017,Attempted Murder,12-06-17,14:30,"No.52, 1st cross, Chunchaghta main r oad, Sharada nagar, J P Nagar 6thphase,
Bengaluru City,","12°53'1.51""N","77°35'24.21""E"
Banashankari,2017,Attempted Murder,25-07-17,20:40,"Near Adigas Hotel, Panduranga Nagar, J P Nagar, Bengaluru City","12°53'1.51""N","77°35'24.21""E"
Banashankari,2017,Attempted Murder,01-10-17,15:30,"IN FRONT OF BIG MARKET 24 TH MAIN, JP NAGARA, Bengaluru City,","12°53'14.84""N","77°35'32.82""E"
Banashankari,2017,Attempted Murder,26-11-17,3:00,"Sancity Layout,, JP Nagara 7th Phase, Bengaluru City,",12.885931,77.585941
Banashankari,2018,Attempted Murder,11-04-18,11:30,"In Front Of medicle Store,, Near Doresanipalya Church, Doresanipalya, Bengaluru",12.90903,77.58764
Banashankari,2018,Attempted Murder,07-12-18,21:00,"Inside Vinayakanagara Forest,, VInayaka Nagara, JP NAGARA 5TH PHASE,",12.902358,77.589837
Banashankari,2019,Attempted Murder,13-11-19,19:00,"INSIDE HOUSE NO-67, 2ND CROSS, ARADHANA LAYOUT, ARAKERE, B.G
ROAD, Bengaluru City",12.881791,77.588689
Banashankari,2015,Attempted Murder,10-02-15,19:00,"NO- NILL, 3RD CROSS, JHBCS LAYOUT, BSK 2ND STAGE",12.91241826,77.56410484
Banashankari,2015,Attempted Murder,06-03-15,22:00,"JARAGANAHALLI PLAY GROUND, YALACHENA HALLI.",12.89991364,77.57249095
Banashankari,2015,Attempted Murder,07-07-15,17:00,"NEAR WER TANK, 15 F BUS STOP, KS LAYOUT",12.90260728,77.56148874
Banashankari,2015,Attempted Murder,29-07-15,18:30,"NEAR MUNESHWARA TEMPLE, BEHIND BLOSSOM SCHOOL, KS LAYOUT",12.90218746,77.57262417
Banashankari,2015,Attempted Murder,29-07-15,12:00,"NO- BACK SIDE OFF MUNESHWARE TEMPLE, KS LAYOUT, BANGLORE",12.90218746,77.57262417
Banashankari,2015,Attempted Murder,03-12-15,16:30,"RUDRAMMA BUILDING, GANGAMMA HOUSE, GANGADHAR NAGAR,",12.90852035,77.57252653
Banashankari,2015,Attempted Murder,13-12-15,21:00,"NO- 10, 6TH CROSS, ALLAMMA PRABHU ROAD, BENDRE NAGAR",12.91412564,77.56333546
Banashankari,2015,Attempted Murder,19-12-15,12:00,"NO- NILL, NEAR BLOSSOM SCHOOL, KS LAYOUT 1ST STAGE.",12.90218746,77.57262417
Banashankari,2016,Attempted Murder,07-01-16,21:00,"NO- 378, 11TH CROSS, ILIYAZ NAGAR, BANGLORE",12.90715124,77.57065327
Banashankari,2016,Attempted Murder,09-01-16,22:30,"NO- NILL, 7TH CROSS, BENDRE NAGAR, BANGLORE",12.91054686,77.56074553
Banashankari,2016,Attempted Murder,27-01-16,15:15,"NO- 05, SARABANDE PALYA, BSK",12.91566688,77.56156532
Banashankari,2016,Attempted Murder,03-05-16,22:00,"40 FEET ROAD KANAKA NAGAR, BANGLORE",12.90366644,77.56746087
Banashankari,2016,Attempted Murder,04-06-16,11:00,"NEAR IDGA MASEEDI ,RING ROAD, JP NAGAR",12.89271943,77.56681596
Banashankari,2016,Attempted Murder,07-07-16,15:30,"NEAR GANAGAMMA TEMPLE HARI COLONY, BANGLORE",12.91449059,77.57210648
Banashankari,2016,Attempted Murder,31-07-16,20:40,"NO- 467, HARI COLONY, BSK",12.91449059,77.57210648
Banashankari,2016,Attempted Murder,07-08-16,0:30,"NEAR MANJUNHA BAR, VISHNUVARDHAR ROAD, BSK",12.90734054,77.57261192
Banashankari,2016,Attempted Murder,16-08-16,23:01,"NEAR KANNADA PLAG POLE, KANAKA NAGAR,",12.9043309,77.56846815
Banashankari,2016,Attempted Murder,05-09-16,17:00,"NEAR OM SHAKTHI TEMPLE, KS LAYOUT",12.90089276,77.56988137
Banashankari,2016,Attempted Murder,03-09-16,15:30,"KANAKAPURA MAIN, YALACHENA HALLI, BANGLORE",12.91629741,77.57079562
Banashankari,,Attempted Murder,19-10-16,18:15,"NO-255, 7TH MAIN, KASHI NAGAR, YALACHENA HALLI, BANGLORE",12.89528445,77.56621287
Banashankari,,Attempted Murder,22-10-16,9:30,"NO- NILL, 23RD CROSS,NEAR LAVAKUSHA PARK, KS LAYOUT 1ST STAGE",12.89854858,77.56966333
Banashankari,2016,Attempted Murder,01-11-16,11:55,"NEAR MUNESHWARA BAR , KANAKAPURA MAIN, YALACHENA HALLI,",12.89819504,77.56937533
Banashankari,2016,Attempted Murder,21-12-16,0:20,"NEAR GARDEN BAR, KANAKAPURA MAIN, YALACHENA HALLI",12.89880749,77.57229001
Banashankari,2017,Attempted Murder,04-02-17,21:00,"NO- 156-1, KANAKAPURA MAIN, VIVEKANANDA COLONY, BANGLORE",12.91249413,77.57240566
Banashankari,2017,Attempted Murder,24-03-17,21:00,"NO- 50, 40 FEET ROAD, KANAKA NAGAR, JP NAGAR",12.90366644,77.56746087
Banashankari,2017,Attempted Murder,09-06-17,23:00,"NO- 8, 1ST MAIN, UMAR BAG LAYOUT",12.89645157,77.56024331
Banashankari,2017,Attempted Murder,23-08-17,21:00,15 F BUS STOP KS LAYOUT 2ND STAGE,12.90260728,77.56148874
Banashankari,2017,Attempted Murder,21-09-17,0:00,"RING ROAD KADIRENA HALLI, BANGLORE",12.90795097,77.57098352
Banashankari,2017,Attempted Murder,22-11-17,22:30,"PIPE LINE, NEAR BALAMURI TEMPLE, 7TH MAIN, ISRO LAYOUT",12.90071316,77.56512395
Banashankari,2017,Attempted Murder,27-11-17,21:00,"SMZ PARTY HALL, RING ROAD, BANGLORE",12.9079108,77.56673681
Banashankari,2018,Attempted Murder,13-03-18,18:00,"NO-34-1A, 17TH MAIN, KS LAYOUT",12.91351662,77.5670477
Banashankari,2018,Attempted Murder,29-05-18,19:00,"NO- 17-A, KRUPA MHRUSHREE, DARSHIN HOTEL, YALACHENA HALLI",12.90089276,77.56988137
Banashankari,2018,Attempted Murder,18-16-2018,21:00,"40 FEET ROAD KANAKA NAGAR, BANGLORE",12.9043309,77.56846815
Banashankari,2018,Attempted Murder,18-06-18,14:00,"40 FEET ROAD KANAKA NAGAR, BANGLORE",12.9043309,77.56846815
Banashankari,2018,Attempted Murder,26-06-18,15:00,"8TH CROSS, BENDRE NAGAR, BANGLORE",12.91514368,77.56941913
Banashankari,2018,Attempted Murder,09-07-18,14:00,"CHANDRA NAGAR, KS LAYOUT",12.90233856,77.56532528
Banashankari,2018,Attempted Murder,18-07-18,23:00,"NO- 77, 2ND CROSS, 4TH MAIN, KASHI NAGAR",12.89823645,77.56947621
Banashankari,2018,Attempted Murder,05-09-20,21:00,"NO- NILL, 47TH CROSS, SRINIVASA THEER, GOWDANAPALYA",12.90509645,77.571337
Banashankari,2018,Attempted Murder,03-11-18,18:00,NEAR NOORANI MASEEDI ILIYAZ NAGAR,12.90617125,77.56984584
Banashankari,2018,Attempted Murder,07-12-18,23:30,"NISHCHITHA BAR, 14TH MAIN KS LAYLUT",12.91351662,77.5670477
Banashankari,2019,Attempted Murder,29-01-19,22:30,"KANAKAPURA MAIN, NEAR METRO STION, YALACHENA HALLI, BANGLORE",12.89684755,77.56748099
Banashankari,2019,Attempted Murder,17-08-19,22:30,"NO- 627, 7TH MAIN, ISRO LAYOUT",12.89790647,77.5594981
Banashankari,2019,Attempted Murder,08-09-19,13:30,"NO- NILL, OPP SUPARNA HOSPITAL, VASANTHAPURA, BANGLORE",12.89143882,77.56450442
Banashankari,2015,Attempted Murder,09-09-15,5:00,"Infront of Adesh hotel, Kalidasanagar,, Hosakerehalli main road, BSK 3rd stage,
Bengaluru City, Karnaka, 560085",12.931754,77.539058
Banashankari,2015,Attempted Murder,18-09-15,2:00,"NEAR WER TANK, 5TH CROSS, 14TH MAIN, S.B.M COLONY, BSK 1ST
STAGE, Bengaluru City, Karnaka, 560050",12.936892,77.551396
Banashankari,2015,Attempted Murder,28-10-15,23:55,"NEAR SUMITH BAR & RESTORANT, 50FT ROAD, MUNESHWARA BLOCK,
Bengaluru City, Karnaka, 560026",12.936135,77.545152
Banashankari,2016,Attempted Murder,02-06-16,8:00,"NEAR BEEDA STAL, OPP SRINIVASA BAR AND RESTORANT, 100 FT RING
ROAD, VEERABHADRA NAGARA, Bengaluru City, Karnaka, 560085",12.937792,77.537268
Banashankari,2016,Attempted Murder,01-01-16,11:30,"10TH MAIN ROAD, NAGENDRA BLOCK, Bengaluru City, Karnaka, 560050",12.939647,77.552168
Banashankari,2016,Attempted Murder,12-03-16,16:00,"1St place No-6, DASOPAN LINE, KABBANPET BANGALORE, 2ND PLACE- NO
1458 1ST CROSS, 17TH MAIN, MUNESHWAR, Bengaluru City, Karnaka,
560085",12.943851,77.548762
Banashankari,2016,Attempted Murder,03-11-16,22:30,"NEAR KEB JUNCTION, CHAMUNDINAGAR,, GIRINAGAR, BSK 3rd STAGE,
Bengaluru City, Karnaka, 560085",12.939585,77.544317
Banashankari,2016,Attempted Murder,10-11-16,22:15,"ON ROAD, NEAR AUDEN SCHOOL PARK,, HOSAKEREHALLI CROSS, BSK
3RD STAGE, Bengaluru City, Karnaka, 560085",12.933474,77.543107
Banashankari,2016,Attempted Murder,27-04-16,21:30,"NO.E-13, ANNAPURNESHWARI NAGAR, OPP-SHARDA ASHRAM,
VEERABHADRANAGAR, BSK 3RD STAGE, Bengaluru City, Karnaka, 560085",12.937343,77.537022
Banashankari,2016,Attempted Murder,12-05-16,11:30,"Infront of house no.42, Coconut Garden,1st cross,, Raghavendra
Layout,Hosakerehalli, BSK 3rd stage, Bengaluru City, Karnaka, 560085",12.930897,77.53865
Banashankari,2016,Attempted Murder,30-11-16,22:15,"No.864, 2nd Cross, Kalidasa Nagar, Hosakerehalli, Bengaluru City, Karnaka,
560085",12.555886,77.321119
Banashankari,2017,Attempted Murder,05-03-17,19:00,"OPP HOLESALE WINE SHOP, 50 FEET ROAD NAGENDRA BLOCK B-26",12.939647,77.552168
Banashankari,2017,Attempted Murder,10-10-17,,OPP B304 SKY LINE APRTMENT DISOZANAGAR HOSAKEREHALLI BSK 3TD STAGE B-85,12.930897,77.53865
Banashankari,2017,Attempted Murder,07-12-17,20:30,1ST CROSS ESHWARI SCHOOL ROAD ESHWARINAGAR HOSAKEREHALLI BSK 3RD STAGE B-85,12.936892,77.551396
Banashankari,2018,Attempted Murder,01-12-18,22:00,"NEAR SBI BANK 17TH MAIN, MUNESHWAR BLOCK, Bengaluru City, Karnaka,
560026",12.93586,77.54388
Banashankari,2018,Attempted Murder,11-13-2018,13:40,"No-168, I CROSS, KASTURIBA COLONY, EERANNA GUDDE, GIRINAGARA,
BSK III STAGE, Bengaluru City, Karnaka, 560085",12.941898,77.55148
Banashankari,2018,Attempted Murder,12-30-2018,2:00,"OPPOSITE TIGER PRABHAKAR HOME, BSK 3RD STGE, Bengaluru City,
Karnaka, 560085",12.934084,77.544929
Banashankari,2019,Attempted Murder,3-14-2019,16:50,"1ST MAIN, RAGHAVENDRA LAYOUT,, HOSAKEREHALLI, BSK 3RD STAGE,,
Bengaluru City, Karnaka, 560085",12.916346,77.536052
Banashankari,2019,Attempted Murder,5-29-2019,14:30,"NO 1080, 9TH MAIN, KALIDASANAGAR, HOSAKEREAHALLI BSK 3RD STAGE,
Bengaluru City, Karnaka, 560085",12.931403,77.53854
Banashankari,2019,Attempted Murder,9-29-2019,20:40,"NEAR KEB JUNCTION, 100FEET RING ROAD, HOSAKEREAHALLI, BSK 3RD
STAGE, Bengaluru City, Karnaka, 560085",12.926366,77.548363
Banashankari,2019,Attempted Murder,10-12-19,22:00,"GIRINAGARA CIRCLE, NEAR RADHAKRISHNA HOSPITAL, 80 FEET ROAD
GIRINAGARA, Bengaluru City, Karnaka, 560085",12.940715,77.545315
Banashankari,2019,Attempted Murder,10-22-2019,21:45,"NO 294, 1ST FLOOR,7TH MAIN,, NAGENDRA BLOCK, Bengaluru City,
Karnaka, 560050",12.941898,77.55148
Banashankari,2015,Attempted Murder,04-12-15,,"NO. 74-6, 3rd Cross, R.K.Mt, K.G.Nagar, Bangalore-19",12.94948,77.5643001
Banashankari,2016,Attempted Murder,30-05-16,1:30,"NO.68, 2nd Cross, R.K.Mt, K.G.Nagar, Bangalore-19",12.94953,77.56316
Banashankari,2017,Attempted Murder,20-03-17,9:00,"Near Maramma Temple, K.G.Nagar, Bangalore.",12.94953,77.56316
Banashankari,2018,Attempted Murder,12-03-18,21:30,"Udayabhanu play Ground, B.T.Road, Bangalore",12.951433,77.567242
Banashankari,2018,Attempted Murder,16-03-18,15:00,"No.110, 11th Cross, 2nd Main, Nanjamba Agrahara, Chamarajpet, Bangalore.",12.953511,77.559792
Banashankari,2018,Attempted Murder,10-04-18,10:30,"No.122, 3rd Cross, R.K.Mt, k>G.Nagar, Bangalore.",12.95046684,77.5643001
Banashankari,2018,Attempted Murder,06-06-18,19:00,"No.357, 2nd Floor, 8th Cross, Kempegowda swimmingpool Near, Laksmipura, K.G.Nagar, Bangalore.",12.948701,77.559813
Banashankari,2019,Attempted Murder,18-06-19,11:30,"OPP,Shanimahama Temple Ambedikar Bhavan, K.G.Nagar, Bangalore.",12.95014,77.5604
Banashankari,2019,Attempted Murder,17-07-19,21:30,"Madiwala Machi Quras Near, Kempambude kere Main Road, K.G.Nagar, Bangalore-19",12.94968,77.56202
Banashankari,2019,Attempted Murder,20-09-19,2:40,"Beside MM Bar, Laksmipura, K.G.Nagar, Bangalore-19",12.94827,77.55944
Banashankari,2019,Attempted Murder,14-11-19,22:30,"Harini Bar Inside, K.G.Nagar, Bangalore-19",12.94951,77.56312
Banashankari,2019,Attempted Murder,22-11-19,12:30,"Infront of House No. 46, Harshachakaravarthi Road, Corportions Quras, K.G.Nagar, Bangalore-19",12.94953,77.56316
Banashankari,2019,Attempted Murder,02-12-19,23:00,"Opp. Venkeshwara Temple Road, Bhavaninagar, K.G.Nagar, Bangalore-19",12.94953,77.56316
Banashankari,2017,Attempted Murder,24-08-17,16:00,"Opp Jyothi store, PMK Road, Shankarapura B'lore-04",12.9533,77.57242
Banashankari,2017,Attempted Murder,29-09-19,19:00,"Nional College Ground, PMK Road, Shankarapura B'lore-04",12.948775,77.572542
Banashankari,2017,Attempted Murder,10-09-17,4:03,"No 5, sri vinayaka & co. corporion market, rv road, vv puram, B-lore",12.95145602,77.57991563
Banashankari,2017,Attempted Murder,03-11-17,19:03,"No 93, 1st main, Parvthipura, B-lore",12.95372208,77.57577085
Banashankari,2018,Attempted Murder,22-08-18,17:03,"Near nional travels godown, Parvhipura entrance, LBF Road, B-lore",12.95627845,77.57656653
Banashankari,2015,Attempted Murder,04-01-15,15:15,"Shanimahhma Temple Road Maruthi Block, Srinagara Gutte, Bengluru.-50",12.9394,77.5543
Banashankari,2015,Attempted Murder,16-01-15,12:15,"4th Cross 9th Main 11th Main Dead end Road, Srinivasa Nagara, Bengaluru. -50",12.9365,77.556
Banashankari,2015,Attempted Murder,02-02-15,17:00,"No.73, 4th Main Road, Srinivasa Nagara, BSK 1st Stage, Bengaluru-50",12.5614,77.3305
Banashankari,2015,Attempted Murder,25-03-15,18:00,"Near 6th Cross,Avalahalli Main Road, Srinagar, Bengaluru-50",12.5638,77.3316
Banashankari,2015,Attempted Murder,28-04-15,2:30,"Near 4th Main,4th Cross, Brundavana Nagara, Bengaluru-50",12.565,77.3633
Banashankari,2015,Attempted Murder,02-06-15,21:00,"Near M.S Bar,Avalahalli Main Road, Srinagar, Bengaluru-50",12.5648,77.3348
Banashankari,2015,Attempted Murder,19-09-15,18:30,"Near P E S College, Srinagara, Bengaluru-50",12.5629,77.3313
Banashankari,2016,Attempted Murder,18-07-16,12:15,"No. 536, 5th Cross, 5th Main Road, Godhavari Nadi Road,Brundhavana Nagara, Srinagara, Bengaluru-50",12.5653,77.3319
Banashankari,2016,Attempted Murder,09-09-16,9:50,"Near Megha Chs, 9th Main, Srinivasanagara, Bengaluru-50",12.561,77.3317
Banashankari,2016,Attempted Murder,27-10-16,13:30,"Near Kumarswamy Temple Park, Hanumantha Nagara, Bengaluru 50",12.5626,77.3327
Banashankari,2017,Attempted Murder,10-02-17,8:45,"No. 93-2, 8th Main Road, 3rd Block, Thyagaraja Nagara Bengaluru -28",12.9324412,77.564925
Banashankari,2017,Attempted Murder,01-05-17,21:30,"Ganaphi Tempel, T.R Shamanna Nagara, Srinagar. Bengaluru 50",12.5641,77.3316
Banashankari,2017,Attempted Murder,06-07-17,11:15,"No. 220, 9th Main Road, Venkaramana Temple Road, Near Srinagar Bus Stand, Srinagara. Bengaluru 50",12.5658,77.334
Banashankari,2017,Attempted Murder,18-07-17,18:30,"Infront Of Flower Decorers Near Ammas Bakery, 50 Feet Road, Srinagar. Bengaluru 50",12.5631,77.3315
Banashankari,2017,Attempted Murder,05-02-17,22:00,"Near Srinidi Condiments, Kalappa Blcok, Sri Nagar, Bengaluru 50",12.5546,77.3403
Banashankari,2018,Attempted Murder,14-07-18,23:40,"Infront of House No. 189, 14th A Main Road,Hanumantha Nagara, Bengluru 19",12.5643,77.3331
Banashankari,2019,Attempted Murder,04-02-19,12:30,"Infornt of Airtel Offfice, Raghavendra Block, Srinagara, Bengaluru 50",12.5629,77.3454
Banashankari,2019,Attempted Murder,04-04-19,21:15,"No 54, 12th Main, 05th Cross, Ragavendra Block, Sri Nagar, Bengaluru 560050",12.5649,77.3492
Banashankari,2019,Attempted Murder,30-04-19,12:30,"Sindhu River Road, Brundhavana Nagara, Bengaluru 560050",12.5668,77.3323
Banashankari,2019,Attempted Murder,31-12-19,12:15,"Near Kalidasa Circle, Srinagar, Bengaluru. 560050",12.5654,77.3309
Banashankari,2015,Attempted Murder,01-01-15,2:00,"No. 84, 1st Main Road, 1st Cross, Cauvery Nagar, Khriguppe, BSK 3rd Stage, Bangalore-85.",12.933307,77.555896
Banashankari,2015,Attempted Murder,03-11-15,22:40,"No. 117, Khiguppe, BSK 3rd Stage, Bangalore-85.",12.932948,77.555739
Banashankari,2016,Attempted Murder,26-06-16,11:40,"No. 4, Banagirinagar, BSK 3rd Stage, Banglore-85.",12.925628,77.558118
Banashankari,2016,Attempted Murder,28-08-16,19:00,"No. 9, 5th Main, 4th Cross, 80 feet Road, Bhuvaneshwarinagar, BSK 3rd Stage, Bangalore-85.",12.92281,77.549459
Banashankari,2016,Attempted Murder,12-09-16,19:00,"Near 43A Bus Stop, Khriguppe Main Road, BSK 3rd Stage, Bangalore-85.",12.930583,77.553237
Banashankari,2016,Attempted Murder,11-10-16,23:45,"No. 110-27-24A, 3rd Main, P.P. Layout, BSK 3rd Stage, Bangalore-85.",12.933015,77.550397
Banashankari,2016,Attempted Murder,13-10-16,15:00,"Infront of Mayura Park Bar & Restaurant, Bhuvaneshwarinagar, BSK 3rd Stage, Bangalore-85.",12.922987,77.549027
Banashankari,2016,Attempted Murder,27-11-16,11:00,"No. 16, 5th Cross, Khriguppe, BSK 3rd Stage, Bangalore-85.",12.929347,77.553496
Banashankari,2017,Attempted Murder,14-01-17,0:30,"No. 766, 9th Cross, Bhuvaneshwari Nagar, BSK 3rd Stage, Bangalore-85.",12.923302,77.547439
Banashankari,2017,Attempted Murder,19-01-17,10:00,"No. 3-19, 1st A Cross, KEB Road, Ittamadu, BSK 3rd Stage, Bangalore-85.",12.923588,77.546773
Banashankari,2017,Attempted Murder,24-01-17,21:00,"Near Janha Garage, 43A Bus Stop, Kriguppe Main Road, BSK 3rd Stage, Bangalore-85.",12.930065,77.552782
Banashankari,2017,Attempted Murder,30-01-17,17:45,"No. 20, 1st B Cross, 33rd Main, Banagirinagar, BSK 3rd Stage, Bangalore-85.",12.92428,77.559714
Banashankari,2017,Attempted Murder,21-07-17,22:30,"VBB Bakery Road, Ittamadu Main Road, BSK 3rd Stage, Bangalore-85.",12.919563,77.542178
Banashankari,2017,Attempted Murder,13-08-17,19:30,"No. 37, 5th Cross, 2nd Main, Near Balaji Choultry, BSK 3rd Stage, Bangalore.",12.927776,77.560628
Banashankari,2017,Attempted Murder,07-10-17,19:30,"Near Mayura Bar & Restaurant, Bhuvaneshwari Nagar Circle, BSK 3rd Stage, Bangalore-85.",12.922983,77.548966
Banashankari,2017,Attempted Murder,01-09-17,19:30,"No.118, 3rd Cross, 3rd Main, 5th Block, BSK 3rd Stage, Bangalore-85.",12.921282,77.552124
Banashankari,2018,Attempted Murder,19-04-18,22:00,"No. 58, 2nd Cross, Ittamadu Main Road, Opposite Nandi Apartment, BSK 3rd Stage, Bangalore-85.",12.924888,77.54409
Banashankari,2018,Attempted Murder,23-09-18,23:15,"Near V.B.B. Bakery, Ittamadu Main Road, BSK 3rd Stage, Bangalore-85.",12.91959,77.541964
Banashankari,2019,Attempted Murder,01-02-19,18:30,"No. 43, Sector tower, 2nd Floor, 20th Cross, Ittamadu, BSK 3rd Stage, Bangalore-85.",12.920267,77.542058
Banashankari,2019,Attempted Murder,15-09-19,10:30,"Infront of Raghavendra Condiments, Near SSM School, T.R. Nagar, Bangalore-28",12.932401,77.564047
Banashankari,2019,Attempted Murder,15-12-19,9:15,"Road Side, Bhuvaneshwarinagar, BSK 3rd Stage, Bangalore.",12.923094,77.549019
Banashankari,2015,Robbery,09-01-15,15:15,"NEAR BSNL GROUND,9th MAIN,4th BLOCK, JAYANAGAR, Bengaluru",12.914562,77.58467
Banashankari,2015,Robbery,18-02-15,13:00,"INFRONT OF BSNL GE, 36TH CROSS, 9TH MAIN, 4TH BLOCK JAYANAGARA Bengaluru",12.912566,77.58986
Banashankari,2015,Robbery,25-02-15,13:30,"NEAR BMTC BUS STAND, 30th CROSS, 4th BLOCK, JAYANAGAR Bangalore",12.91802,77.58833
Banashankari,2015,Robbery,14-05-15,0:05,"INFRONT OF RAYMOND SHOW ROOM, ELEPHANT ROCK ROAD, 3RD BLOCK JAYANAGAR Bangalore",12.554512,77
Banashankari,2015,Robbery,05-07-15,3:40,"Jayanagara Shoping Complex, Jayanagara 4th Block Bangalore",12.932946,77.58386
Banashankari,2015,Robbery,02-11-15,9:45,"Near Ex DCM R Ashok's House, 37th Cross Circle, 2nd Main, 8th Block, Jayanagara Bangalore",12.915644,77.56456
Banashankari,2016,Robbery,07-02-16,20:45,"NEAR BUS STOP PAI VICEROY, 9th MAIN, JAYANAGAR 3rd BLOCK",12.97194,77.59369
Banashankari,2016,Robbery,29-02-16,11:00,"32nd CROSS, 2nd MAIN, 7th BLOCK, JAYANAGAR",12.932554,77.589451
Banashankari,2016,Robbery,07-04-16,20:15,"Siddartha spirit zoon wine store, No. 17-30-2, 28th Cross, 7th Block Jayanagara, Kanakapura road,",12.933705,77.5787847
Banashankari,2016,Robbery,09-09-16,20:15,"NEAR SHYA SAI CIRCLE, 9th MAIN 5th BLOCK,JAYANAGAR",12.96557,77.60625
Banashankari,2016,Robbery,19-09-16,23:30,"No.55, 2nd Floor, Vaishnavi Buillding , 47th Cross, 8th Block Jayanagar",12.916148,77.58543
Banashankari,2016,Robbery,09-10-16,22:00,"37th Cross,Inbetween 1st & 2nd Main,Near JSS Auditoriam , Jayanagar 8th Block,",12.922512,77.588537
Banashankari,2016,Robbery,26-10-16,21:00,"Near BES College, 16th Main,Jayanagar 4th T Block,",12.97194,77.59369
Banashankari,2016,Robbery,26-10-16,16:30,"Laibrary Road, 5th Main Jayanagara 3rd Block",12.97194,77.59369
Banashankari,2016,Robbery,22-11-16,9:15,"Near no.75, 6th Main, 36th Cross,Jayanagar 5th Block",12.922517,77.58415
Banashankari,2016,Robbery,29-11-16,21:35,"38th CROSS, 11th MAIN, 5th BLOCK,JAYANAGAR",12.929273,77.582423
Banashankari,2016,Robbery,02-12-16,0:30,"11th A main Road, Jayanagara 5th Block",12.922918,77.58598
Banashankari,2016,Robbery,09-12-16,20:00,"Near South end Circle, Jayanagara 6th Block",12.96557,77.60625
Banashankari,2016,Robbery,18-12-16,14:00,"Near Milk Booth,5th Main,5th Block Jayanagar",12.929273,77.58242
Banashankari,2016,Robbery,26-12-16,10:30,"infront of mo.147, 43rd Cross, 3rd Main Road Jayanagara 8th Block",12.929273,77.58242
Banashankari,2016,Robbery,27-03-17,12:30,"Near Famous Bar, 46th Cross, Marenahalli, Jayanagara 4th T Block",12.924709,77.589568
Banashankari,2016,Robbery,21-04-17,10:40,"Near Banashankari Bus Stop,JAYANAGARA 8TH BLOCK",12.920751,77.574677
Banashankari,2016,Robbery,21-04-17,16:30,"Sarakki Bus Stand, Kanakapura Main Road, JP Nagara 1st Phase",12.91113,77.572982
Banashankari,2016,Robbery,25-07-17,9:00,"Opposite Main land china hotel, 9th main road,5th block, Jayanagar",12.920042,77.583575
Banashankari,2016,Robbery,28-07-17,23:30,"Near Prakruti Chikitsalaya,Jayanagar 3rd Block",12.933466,77.584554
Banashankari,2016,Robbery,28-08-17,14:30,"NEAR LAKSHAMANA RAO PARK, 4th MAIN, 36th CROSS,4th BLOCK, JAYANAGARA",12.923436,77.583712
Banashankari,2016,Robbery,12-09-17,12:10,"38TH CROSS, 5TH MAIN, NEAR RASHTRIYA VIDYALAYA, METRO STION JAYANAGAR 5TH BLOCK",12.921507,77.580242
Banashankari,2017,Robbery,20-09-17,11:30,"16th Main, BES College 4th Block Jayanagar",12.929507,77.580123
Banashankari,2017,Robbery,30-10-17,22:30,"Near Syndice Bank, 9th Main Road, 3rd Block Jayanagar",12.933196,77.583949
Banashankari,2017,Robbery,08-11-17,13:15,"Near DCP (S) Office, South End Circle,Jayanagara 6th Block",12.937057,77.579642
Banashankari,2017,Robbery,14-11-17,20:45,"No-173, 5th main, 33rd cross, near perl opticals,4th Block, Jayanagar",12.926539,77.580657
Banashankari,2017,Robbery,14-11-17,21:15,"31st Cross, 16th Mainroad,Jayanagar 4th Block,",12.927594,77.587401
Banashankari,2017,Robbery,16-11-17,10:00,"36th Cross, 10th A Main, 4th Block, Jayanagar",12.924444,77.58544
Banashankari,2017,Robbery,17-11-17,3:15,"MARENA HALLI SIGNAL, NEAR VAJAPEYI BUS STOP, JAYANAGAR 4TH T BLOCK",12.919213,77.589206
Banashankari,2017,Robbery,01-12-17,20:45,"Near Prive Bus Stop, Banashankari Bus Stand, 46th Cross, 8th Block Jayanagar,",12.917612,77.57555
Banashankari,2018,Robbery,20-02-18,23:10,"33rd cross, 10th main, 4th Block jayanagar",12.926114,77.584636
Banashankari,2018,Robbery,02-03-18,19:50,"4th Main, 40th Cross, 8th Block Jayanagar",12.91996,77.577755
Banashankari,2018,Robbery,06-04-18,20:00,"Elephant Rock road, 3rd Block Jayanagar",12.932965,77.583821
Banashankari,2018,Robbery,07-04-18,0:10,JSS Circle 8th Block Jayanagar,12.922168,77.575662
Banashankari,2018,Robbery,14-04-18,1:15,Laibrary road 3rd Block Jayanagar,12.936028,77.581004
Banashankari,2018,Robbery,16-04-18,9:30,"Near Adishwara Showroom, 9th Main Road, 40th Cross 5th Block Jayanagar",12.91802,77.588333
Banashankari,2018,Robbery,23-04-18,0:15,"44th Cross, 3rd Main Jayanagar 8th Block",12.918903,77.579729
Banashankari,2018,Robbery,26-04-18,22:30,"Behind Nional Collage 3rd main,7th Block Jayanagar",12.926314,7.579646
Banashankari,2018,Robbery,08-06-18,22:00,"Infront of Vijaya Bank, South End Road, 6th Block Jayanagar",12.936564,77.579101
Banashankari,2018,Robbery,27-06-18,0:30,"44th Cross, 2nd Main, 8th Block, Jayanagar",12.919622,77.576159
Banashankari,2018,Robbery,03-08-18,12:00,"37th Cross, 9th main, 5th Block Jayanagar",12.922461,77.589067
Banashankari,2018,Robbery,19-08-18,14:15,"in front of lakshman rao park, 4th main 5th Block jayanagara",12.919946,77.580174
Banashankari,2018,Robbery,24-10-18,2:00,"NEAR ALLEN COLLEGE, ANEBANDE ROAD,3RD BLOCK JAYANAGAR",12.91795,77.588783
Banashankari,2018,Robbery,11-11-18,16:30,"Yadiyuru circle, 6th, Block Jayanagar, Bengaluru",12.917777,77.58849
Banashankari,2018,Robbery,06-12-18,14:00,"11TH MAIN, 46TH CROSS JUNCTION, NEAR RAGHAVENDRA SWAMY TEMPLE, 5TH BLOCK JAYANAGAR",12.91691,77.5857
Banashankari,2018,Robbery,07-12-18,20:10,"Opposite Bengaluru Internional school,2nd Main, 32nd Cross, 7th Block Jayanagar",12.94391,77.5656
Banashankari,2019,Robbery,09-01-19,11:45,"NEAR HUNASE TREE KANAKAPURA MAIN ROAD,BANASHANKARI",12.91925,77.57409
Banashankari,2019,Robbery,10-01-19,13:45,"Near Jayanagar public library, 11th main, 5th Block Jayanagar",12.920789,77.584152
Banashankari,2019,Robbery,22-02-19,14:15,"Near Lakshmi medicle store, 36th Cross,16th Main, 4th T Block Jayanagar",12.9218,77.58027
Banashankari,2019,Robbery,10-06-19,12:30,"Infront of No. 55-A-44, 40th Cross, 2nd Main, 8th Block Jayanagar",12.89658,77.58865
Banashankari,2019,Robbery,15-06-19,12:10,"NEAR AMPLE MART, 16TH MAIN, 4TH T BLOCK JAYANAGAR",12.937897,77.589756
Banashankari,2019,Robbery,22-06-19,20:45,"35TH CROSS, 16TH A MAIN, 4TH T BLOCK JAYANAGAR",12.935478,77.586977
Banashankari,2019,Robbery,24-06-19,20:45,"NEAR BRUNDAVANA PARK, 34TH CROSS, 4TH BLOCK JAYANAGAR",12.913208,77.646289
Banashankari,2019,Robbery,10-08-19,22:30,"40TH Cross, 3rd Main Road, 8th Block Jayanagara",12.91984,77.57982
Banashankari,2019,Robbery,09-09-19,14:45,"OPP JALABHAVAN, 46TH CROSS, 8TH BLOCK, JAYANAGAR",12.88411,77.49496
Banashankari,2019,Robbery,04-10-19,14:00,"Behind Meenar Masque, No 45-7, 3rd Cross, MTB Area 5th Block Jayanagar",13.12876,80.23122
Banashankari,2019,Robbery,10-10-19,0:45,"IN FRONT OF PALAMMA TEMPLE, SOUTH END ROAD, 3RD BLOCK, JAYANAGAR",12.93131,77.55262
Banashankari,2019,Robbery,30-12-19,13:00,"11th Main Road, 3rd Block Jayanagar",12.28657,76.63203
Banashankari,2015,Robbery,12-06-15,,"K R road, Basavanagudi",12.562385,77.342557
Banashankari,2015,Robbery,21-09-15,,"E Street, Basavanagudi",12.944364,77.570389
Banashankari,2016,Robbery,6-18-2016,,"R V road, Teachers college, Basavanagudi",12.941264,77.580945
Banashankari,2016,Robbery,10-21-2016,,"Nettakallappa circle, Basavanagudi",12.940014,77.573508
Banashankari,2016,Robbery,10-21-2016,,"Near school, Vani vilas road, Basavanagudi",12.948533,77.576886
Banashankari,2016,Robbery,12-01-16,,"Brahmakumari, resrerver street, Basavanagudi",12.939203,77.574648
Banashankari,2016,Robbery,22-12-16,,"Servrior street, Basavanagudi",12.939203,77.574648
Banashankari,2017,Robbery,01-04-17,,"KEB Qty, near Plagamma temple, T R Nagar,",12.933631,77.567751
Banashankari,2017,Robbery,2-21-2017,,"Old Kanakapur road, near SRS petrol bunk",12.938711,77.576996
Banashankari,2017,Robbery,3-19-2017,,"HB Samaz road, Basavanagudi",12.94605,77.575394
Banashankari,2017,Robbery,06-10-17,,"Palamma street, Basavanagudi",12.938967,77.578236
Banashankari,2017,Robbery,7-15-2017,,"near bull temple, Kam hotel, Basavanagudi",12.940152,77.566791
Banashankari,2017,Robbery,7-26-2017,,"dwaraka hotel, Kte Balag, N R colony",12.937975,77.56561
Banashankari,2017,Robbery,08-07-17,,"Bull temple road, Basavanagudi",12.940152,77.566791
Banashankari,2017,Robbery,10-16-2017,,"Lalabhagc waste ge, Basavanagudi",12.947732,77.580382
Banashankari,2017,Robbery,10-18-2017,,"Tasilk forum, Basavanagudi",12.936013,77.574015
Banashankari,2017,Robbery,10-22-2017,,"R V road, Southend road, Basavanagudi",12.947732,77.580382
Banashankari,2018,Robbery,1-27-2018,,"K R road, Basavanagudi",12.789441,77.789841
Banashankari,2018,Robbery,3-22-2018,,"South end circle, Basavanagudi",12.94138,77.579918
Banashankari,2018,Robbery,3-23-2018,,"Near Nional college, Vani vilas road, Basavanagudi",12.947809,77.574315
Banashankari,2018,Robbery,05-02-18,,"Imperial house, Ranoji road, Basavanagudi",12.943653,77.578494
Banashankari,2018,Robbery,05-07-18,,"Dev Madavan road, Nettakallappa circle, Basavanagudi",12.93841,77.57319
Banashankari,2018,Robbery,06-07-18,,"K R road, Basavanagudi",12.849751,77.8954621
Banashankari,2018,Robbery,07-09-18,,"near Taxi stand, BP wadiya road, Basavanagudi",12.943878,77.575749
Banashankari,2018,Robbery,04-09-18,,"Yadiyuru Junction, Relaince mart, South end road",12.7865741,77.8754201
Banashankari,2018,Robbery,10-10-18,,"Near Brigade park, BP wadiya road, Basavanagudi",12.943671,77.574675
Banashankari,2018,Robbery,10-24-2018,,"Gandi Bazar road, Basavanagudi",12.94546,77.57132
Banashankari,2018,Robbery,10-24-2018,,"Near Kaveri Petrol bunk, Lalbhag road, Basavanagudi",12.948101,77.579533
Banashankari,2018,Robbery,21-12-18,,"APS college N R colony, Basavanagudi",12.86541,77.68521
Banashankari,2019,Robbery,09-08-19,,"Lalabhagc waste ge, Basavanagudi",12.948101,77.579533
Banashankari,2019,Robbery,13-08-19,,"U K hotel, K R road, Basavanagudi",12.849751,77.8954621
Banashankari,2015,Robbery,20-03-15,22:30,"Near House No-169-1, 18th A'Main, 7th Cross,, JP Nagar 2nd Phase, Bengaluru
City, Karnaka, 560078",12.9164781,77.5877546
Banashankari,2015,Robbery,22-06-15,15:20,"7th Mainroad, 7th Cross,, 3rd phase JP Nagara, Bengaluru City, Karnaka,
560078",12.9113469,77.5934304
Banashankari,2015,Robbery,06-07-15,16:20,"Infront of Axis Bank, Servies Road,, B G Road, 3rd phase J P Nagara, Bengaluru
City, Karnaka, 560078",12.8136962,77.587486
Banashankari,2015,Robbery,07-07-15,9:10,"3rd Cross, C.R.Layout, J.P.Nagar 1st Phase, Bengaluru City, Karnaka, 560078",12.9155917,77.5770282
Banashankari,2015,Robbery,10-07-15,16:30,"1st Crossroad, 4th Mainroad, 3rd phase J P Nagara, Bengaluru City, Karnaka,
560078",12.8893536,77.5463813
Banashankari,2015,Robbery,11-08-15,2:30,"No.2045-A, 7TH CROSS, 18TH MAIN, J P NAGAR 2ND PHASE, Bengaluru City,
Karnaka, 560078",12.911969,77.5861441
Banashankari,2015,Robbery,14-08-15,20:00,"Near Bangalore Central Mall, J.P.Nagar 2nd Phase, Bengaluru City, Karnaka,",12.9163635,77.5902451
Banashankari,2015,Robbery,29-09-15,16:00,"Near J.D Mara Bus Stop, Bannerughta Road, 4th Phase J.P Nagar, Bengaluru
City, Karnaka, 560078",12.9081752,77.5982283
Banashankari,2016,Robbery,02-01-16,9:15,"In Front Of House No 195, 17th B Cross, 30th A, Main, Near Kashi Vishwanha
Temple, J.P.Nagar 6th, Bengaluru City, Karnaka, 560078",12.9048333,77.5789134
Banashankari,2016,Robbery,27-02-16,11:30,"Near Chirag Hospital, 17th Main Road, 2nd Phase JP Nagar, Bengaluru City,
Karnaka, 560078",12.9126892,77.5892209
Banashankari,2016,Robbery,31-03-16,15:00,"Near House, 17th Cross,, 6th Phase J.P Nagar, Bengaluru City, Karnaka,
560078",12.9016312,77.5710152
Banashankari,2016,Robbery,11-04-16,2:15,"Beside of Central Mall, 17th Main Road,, JP Nagar 2nd Phase, Bengaluru City,
Karnaka, 560078",12.9164782,77.5901863
Banashankari,2016,Robbery,02-05-16,22:35,"Near Delmea Signal Park, J P Nagar 4th Phase, Bengaluru City, Karnaka,",12.9165042,77.5836202
Banashankari,2016,Robbery,08-05-16,3:30,"NNear Aravind Marga Signal, 46th Cross, 24th MAin, Jayanagar 5th Block,
Bengaluru City, Karnaka",12.9160929,77.5835311
Banashankari,2016,Robbery,02-06-16,17:35,"Inside the Talkwalkar Gym Near Delmia Circle, JP Nagar 3rd Phase, Bengaluru
City, Karnaka, 560078",12.9064281,77.5923107
Banashankari,2016,Robbery,09-06-16,19:30,"No 84, 23rd Main,, J.P.Nagar 2nd Phase, Bengaluru City, Karnaka, 560078",12.9138583,77.5843258
Banashankari,2016,Robbery,23-06-16,12:45,"On Footph, Near Central Mall Road, J P Nagar 2nd Phase, Bengaluru City,
Karnaka,",12.9164782,77.5901863
Banashankari,2016,Robbery,15-07-16,19:30,"In Front of Benglore Central Mall,, Jayanagar 9th Block, Bengaluru City, Karnaka,",12.9105691,77.5737605
Banashankari,2016,Robbery,18-07-16,16:35,"House No.836, 23rd Main, 10 Cross,, J.P.Nagar 2nd Phase, Bengaluru City,
Karnaka, 560078",12.9152662,77.5844226
Banashankari,2016,Robbery,30-07-16,6:15,"7th Main, 10th Cross, Near Mini forrest, J P Nagar 3rd phase, Bengaluru City,",12.9116237,77.5965099
Banashankari,2016,Robbery,24-08-16,12:30,"Infront of Modi Xerox, Parking place, Opp. Oxford Collage, J P Nagar, 1st Phase,
Bengaluru City, Karnaka, 560078",12.9116497,77.5899438
Banashankari,2016,Robbery,01-09-16,15:00,"Aravinda Circle, 9th Cross,, 1st phase J P Nagar, Bengaluru City, Karnaka,",12.9169843,77.5836119
Banashankari,2016,Robbery,01-09-16,12:30,"Oppt. P N P Retail shop, Near Nandhini Hotel,, 24th Main, J P Nagar, Bengaluru
City, Karnaka, 560078",12.9170307,77.5682909
Banashankari,2016,Robbery,10-09-16,2:05,"Near R V Dental College, J P Nagar, Bengaluru City, Karnaka,",12.9117957,77.5826913
Banashankari,2016,Robbery,13-10-16,14:30,"Near NO.36, Near Noor Masjid, 20th Main, Crossroad, J P Nagar 5th phase,
Bengaluru City, Karnaka, 560078",12.9047516,77.5859256
Banashankari,2016,Robbery,18-10-16,7:45,"Near Mondovi Motors, Jp Nagar 3rd Phase, Bengaluru, Bengaluru City, Karnaka,
560078",12.9080001,77.5989745
Banashankari,2016,Robbery,19-10-16,21:00,"Parimala Clinic,
Sarakki Mainroad,J
P Nagar 1st phase
, Bengaluru City ,
Karnaka-560078",12.9134896,77.5767334
Banashankari,2016,Robbery,19-10-16,21:00,"11th B Cross,, J P Nagar 2nd Phase, Bengaluru City, Karnaka,",12.9087019,77.5877553
Banashankari,2016,Robbery,20-10-16,3:10,"Infront of KFC, 24th Mainroad, 2nd phase J P Nagar, Bengaluru City, Karnaka,
560078",12.9151204,77.5837865
Banashankari,2016,Robbery,22-12-16,0:30,"Medplus Shop No,1&11, Sarakki Main Road,, Vysya Bank Colony, JP Nagar 1st
Phase, Bengaluru City, Karnaka, 560078",12.9166068,77.5773499
Banashankari,2017,Robbery,10-02-17,11:40,"NSarakki, 1st Phase, 6th main Road, J P Nagar, Bengaluru City, Karnaka, 560078",12.9094322,77.5706543
Banashankari,2017,Robbery,28-03-17,13:32,"Near Famous Bar, 46th Cross, J.P.Nagar 2nd Phase, Bengaluru City, Karnaka,
560078",12.9168638,77.5832552
Banashankari,2017,Robbery,05-06-17,13:00,"14th Cross, 23rd Mainroad, J.P.Nagar 2nd Phase, Bengaluru City, Karnaka,
560078",12.906925,77.5842211
Banashankari,2017,Robbery,30-07-17,17:00,"4th Crossroad, Aryanagara, J P Nagar 1st phase, Bengaluru City, Karnaka,
560078",12.9174342,77.5735833
Banashankari,2017,Robbery,04-09-17,9:30,"VET Collage Road, J P Nagar 2nd phase, Bengaluru City, Karnaka, 560078",12.9174602,77.5670172
Banashankari,2017,Robbery,20-09-17,14:00,"11th A Cross,6th main,, JP Nagar 3rd phase, Bengaluru City, Karnaka",12.9064191,77.5945086
Banashankari,2017,Robbery,02-10-17,10:30,"Infront of compound, near Ragigudd petrol bunk,, 9th Cross, J P Nagar 2nd phase,
Bengaluru City, Karnaka, 560078",12.9142916,77.5909833
Banashankari,2018,Robbery,21-01-18,9:00,"Infront Of Kai Ruchi Hotel,, 9th Cross, J.P.Nagar 2nd Phase, Bengaluru City,
Karnaka, 560078",12.9103454,77.5902119
Banashankari,2019,Chain Snatching,6-16-2019,22:15,"NEAR TS NAGABHARANA HOUSE, 80 FEET ROAD , SBM COLONY, Bengaluru
City, Karnaka, 560050",12.938621.,77.550721
Banashankari,2015,Chain Snatching,09-11-15,14:30,"6th paralal road, chamaraj pete , b-18",12.95601,77.56426
Banashankari,2016,Chain Snatching,27-09-16,20:35,"opp lingaya cemetery , jinke park road, chamaraj pete b-18",12.95222,77.5568
Banashankari,2017,Chain Snatching,10-04-17,8:30,"shanimahhma temple , bhavani nagar , k g nagar b-19",12.94682,77.560151
Banashankari,2017,Chain Snatching,02-05-17,16:30,"service road, beside BSNL office, k g nagar b-19",12.9506,77.56736
Banashankari,2017,Chain Snatching,16-07-17,21:30,"no 52-8 A cross puttanna chetti road, chamaraj pete b-18",12.957,77.5624
Banashankari,2017,Chain Snatching,12-08-17,14:00,"near ganagammadevi temple, kempambhudi kere road, b-19",12.95334,77.5617
Banashankari,2018,Chain Snatching,20-03-18,21:00,"1st cross, 6th main appurao road, chamaraj pete b-18",12.955191,77.56419
Banashankari,2019,Chain Snatching,07-02-19,17:00,"madivala machi quarters, k g nagar b-19",12.950078,77.556696
Banashankari,2019,Chain Snatching,08-02-19,10:45,"5th main, madva sanga road, chamaraj pete b-18",12.956273,77.564378
Banashankari,2019,Chain Snatching,01-05-19,22:30,"2nd main , nanajamba agrahara chamaraj pete, b-18",12.95319,77.55794
Banashankari,2017,Chain Snatching,15-09-17,20:30,"No-13, Shub house opp, 4th cross, Shankarapura B'lore-04",12.94898752,77.56995676
Banashankari,2018,Chain Snatching,04-05-18,22:00,"No-25-2, Inside of Compound, 5th Cross, chikkanna Garden. Shankarapura B'lore-04",12.9556,77.56883
Banashankari,2015,Chain Snatching,06-01-15,15:30,"West circle road, jain temple road, vv puram, b-lore",12.9486433,77.57586657
Banashankari,2015,Chain Snatching,22-03-15,9:15,"infront of No 148, mahadeswara building, 5th main, chamarajapet, b-lore",12.9594654,77.57113375
Banashankari,2015,Chain Snatching,17-04-15,6:30,"Infront of jain temple, jain temple road, vv puram, b-lore",12.95154815,77.57555399
Banashankari,2015,Chain Snatching,28-12-15,18:30,"Near sbi bank, NMH Road, vv puram, B-lore",12.94870298,77.5787416
Banashankari,2016,Chain Snatching,08-07-16,10:30,"BMC Ladies Hostel, opp Tippu sultan palace, chamarajapet, B-lore",12.96020902,77.57035056
Banashankari,2017,Chain Snatching,11-06-17,9:15,"near APS, SR Road cross, Parvhipura, B-lore",12.95274238,77.57638783
Banashankari,2018,Chain Snatching,30-05-18,16:30,"Near BMC, KR Road, B-lore",12.95862417,77.57448411
Banashankari,2018,Chain Snatching,19-06-18,23:00,"Infront of House No 1-2, Middle school cross road, VV Puram, B-lore",12.95206739,77.57928102
Banashankari,2018,Chain Snatching,29-10-18,10:30,"Shivashankarappa circle near, Near bus stand, KR Road, B-lore",12.95673846,77.57548011
Banashankari,2019,Chain Snatching,12-03-19,17:30,"Near Brindavana Hospital, 4th main, Chamarajapet, B-lore",12.9579316,77.56937036
Banashankari,2015,Chain Snatching,01-06-15,15:30,"5th Main 11th CRoss Basappa Layout, Hanumantha Nagara, Bengaluru City,",12.564415,77.333533
Banashankari,2015,Chain Snatching,2-22-2015,11:50,"In Front of No:214-A, 2nd Cross Near Venkaramana, Temple Bsk 1st Stage,Bengaluru City, Karnaka, 560050",12.563386,77.331944
Banashankari,2015,Chain Snatching,5-20-2015,13:45,"In front of nO-84, 3rd Cross, Masthi Venkesh Iyangar Road, Gavipuram Extn,Bengaluru City, Karnaka, 560019",12.94599,77.56601
Banashankari,2015,Chain Snatching,5-28-2015,8:55,"CK Acchuktu park road,, Gangammana gudi Layout, Vidyapeeta Circle,Bengaluru City, Karnaka,",12.93506,77.56309
Banashankari,2015,Chain Snatching,7-29-2015,18:20,"In fornt of House No:555, 4th Cross, Bsk 1st Stage 2nd Block, Bengaluru City,Karnaka, 560050",12.93888,77.55925
Banashankari,2015,Chain Snatching,9-21-2015,12:30,"BANDIMAHAKALAMMA TEMPLE NEAR, KALAPPA BLOCK, PIPE LINE,SRINAGAR, Bengaluru City, Karnaka, 560050",12.564184,77.33259
Banashankari,2015,Chain Snatching,10-01-15,12:30,"Near 12th Main, 6th Cross, BSK 1st Stage, Bengaluru City, Karnaka, 560050",12.93965,77.55687
Banashankari,2015,Chain Snatching,10-02-15,20:45,"Near Ramanjaneya Gudda Road, Hanumanthanagar, Bengaluru City, Karnaka,",12.94464,77.56029
Banashankari,2015,Chain Snatching,11-04-15,11:30,"12th Main, 4th Cross, Raghavendra Block, Bengaluru City, Karnaka, 560050",12.94305,77.5541
Banashankari,2016,Chain Snatching,01-08-16,21:30,"Near 9th Main,, Hanumanthanagar, Bengaluru City, Karnaka, 560019",12.942041,77.561018
Banashankari,2016,Chain Snatching,3-24-2016,7:30,"Near No-34, 9th Main Road, BSK 1st Stage, 2nd Block, Bengaluru City, Karnaka,",12.935563,77.633307
Banashankari,2016,Chain Snatching,5-19-2016,8:45,"Near 11th Main, 4th Cross, Hanumanthanagar, Bengaluru City, Karnaka, 560019",12.940906,77.557557
Banashankari,2016,Chain Snatching,12-21-2016,7:30,"Infornt of No.401, 7th Cross Junction, 9th Main, Hanumantahnagar, Bengaluru City,",12.944244,77.560414
Banashankari,2017,Chain Snatching,01-08-17,15:00,"Near 12th Main, BSK 1st Stage, 2nd Block, Bengaluru City, Karnaka, 560050",12.943552,77.550541
Banashankari,2017,Chain Snatching,1-28-2017,13:25,"Near 17th Main, Radhakrishana School Road, Srinagar, Bengaluru City, Karnaka,",12.946262,77.549017
Banashankari,2017,Chain Snatching,04-01-17,11:00,"Infornt of No.26-A, 13th Cross, BSK 1st Stage,, Bengaluru City, Karnaka, 560050",12.935795,77.656466
Banashankari,2017,Chain Snatching,05-02-17,15:30,"Near 4th Cross, 6th Main, Thyagarajanagara, Bengaluru City, Karnaka, 560028",12.929073,77.570739
Banashankari,2017,Chain Snatching,07-10-17,23:00,"Infront of House No 78, 11th Main,, Sri Nagar, Bengaluru City, Karnaka, 560050",12.942216,77.554679
Banashankari,2017,Chain Snatching,9-13-2017,7:15,"In front of House Stair Case No.717,6th Main,, 7th Cross,T.P Kailasam Road,Hanumanthanagar, Bengaluru City, Karnaka, 560019",12.944505,77.561971
Banashankari,2017,Chain Snatching,12-11-17,22:30,"4th Cross, Kaveri River Road,, Brundhavana Nagara,, Bengaluru City, Karnaka,",12.944505,77.561971
Banashankari,2017,Chain Snatching,12-14-2017,18:30,"Near 12th Main Road, Srinivasanagara, Bengaluru City, Karnaka, 560050",12.937041,77.552855
Banashankari,2018,Chain Snatching,5-18-2018,10:20,"Near 20th Main, PES College Wer Tank Beside, BSK 1st Stage, Bengaluru City,",12.94051,77.55416
Banashankari,2018,Chain Snatching,07-09-18,6:30,"No.381, Infont of prakash's house, 12th Cross,, TR Shamanna NagarSri Nagar,Bengaluru City, Karnaka, 560050",12.94619,77.55094
Banashankari,2018,Chain Snatching,09-05-18,19:40,"In front of House No.132-2, New No.7,13th Main,, 4th Cross,Hanumanthanagar,Bengaluru City, Karnaka, 560019",12.94354,77.56295
Banashankari,2018,Chain Snatching,09-09-18,22:00,"Near Kaggis Bakary,50 Feet road,, Hanumantha Nagar, Bengaluru City,",12.942063,77.559585
Banashankari,2018,Chain Snatching,9-25-2018,18:10,"2nd Main, BSK 02nd stage, Sri Nagar, Bengaluru City, Karnaka, 560050",12.942372,77.557356
Banashankari,2019,Chain Snatching,01-10-19,21:45,"Infront of House No.223, 5th Main, 2nd Cross, Hanumanthanagar, Bengaluru City,",12.94285,77.56216
Banashankari,2019,Chain Snatching,01-10-19,23:30,"Near Kaverinadi Road Junction,, Pipline Road, Srinagar, Bengaluru City,",12.94519,77.55699
Banashankari,2019,Chain Snatching,02-03-19,20:15,"03rd Main, 05th Cross, Srinivasa Nagar, BSK 01st Stage,, Bengaluru City,",12.935247,77.554545
Banashankari,2019,Chain Snatching,2-26-2019,8:15,"In front of House No.183, 14-15th Main,2nd Cross, Bsk 1st stage,Hanumanthanagar, Bengaluru City, Karnaka, 560050",12.94218,77.55857
Banashankari,2019,Chain Snatching,3-19-2019,19:30,"Near 4th Main Road,, Srinivasa Nagara,, Bengaluru City, Karnaka, 560050",12.93562,77.55478
Banashankari,2019,Chain Snatching,4-24-2019,20:15,"3rd Cross Road,, Ashoka Nagara, Bengaluru City, Karnaka, 560050",12.9352,77.56323
Banashankari,2019,Chain Snatching,4-24-2019,22:00,"Infront of House No.442, 8th Main, Hanumanthanagar, Bengaluru City, Karnaka,",12.94382,77.5612
Banashankari,2019,Chain Snatching,5-27-2019,18:00,"Near 6th Main,, Raghavendra Block, Srinagar, Bengaluru City, Karnaka, 560050",12.94236,77.55585
Banashankari,2019,Chain Snatching,8-25-2019,22:00,"BT ROAD, NEAR BASAPPA PARK, GAVIPURAM EXTENTION, Bengaluru City,",12.9468,77.3563627
Banashankari,2019,Chain Snatching,09-10-19,16:00,"Near 2nd Main, Basappa Layout, Hanumanthanagar, Bengaluru City, Karnaka,",12.94551,7756466
Banashankari,2019,Chain Snatching,12-03-19,18:30,"Near Jain Temple, 04th Cross,, Hanumantha Nagara, Bengaluru City, Karnaka,",12.944193,77.556826
Banashankari,2019,Chain Snatching,12-09-19,12:00,"Near Shrinikethan House, 17th Main Road,, BSK 1st Stage,, Bengaluru City,",12.93912,77.55505
Banashankari,2019,Chain Snatching,12-18-2019,20:30,"Near 4th Cross, 6th Main,, Thyagarajanagara, 3rd Block, Bengaluru City",12.93444,77.5661
Banashankari,2015,Chain Snatching,21-06-15,20:45,"5th main, 3rd cross, 2nd block, BSK 3rd stg, Bengluru-85",12.930874,77.545487
Banashankari,2015,Chain Snatching,25-08-15,12:15,"Srinivasa clinik, 5th cross, 5th main, BSK 3rd stg, Bengluru-85",12.926381,77.55534
Banashankari,2015,Chain Snatching,21-09-15,11:45,"No, 78, 7th cross, 4th main, K.E.B. park, BSK 3rd stg, Bengluru-85",12.925038,77.546948
Banashankari,2015,Chain Snatching,22-09-15,16:00,"No, 69, 2nd main, kaverinagar, BSK 3rd stg, Bengluru-85",12.930957,77.552192
Banashankari,2015,Chain Snatching,02-12-15,18:45,"Near Medical Store, mahalakshmi tempale, Bhuvneshwarinagar, BSK 3rd stg, Bengluru-85",12.922066,77.550921
Basavanagudi,2018,Robbery,28-01-18,17:10,"Opp. Dr. Ambarish house, 12th Crossroad, 21st Mainroad, J P Nagar 2nd phase,
Bengaluru City, Karnaka, 560078",12.9217529,77.5825697
Basavanagudi,2018,Robbery,29-01-18,22:00,"11th Cross midway, Near Mini forest, J P Nagar 3rd phase, Bengaluru City,
Karnaka, 560078",12.9116237,77.5965099
Basavanagudi,2018,Robbery,24-02-18,9:30,"Locion Infinttude Global Services, Near to SLV, Hotel, 8th Main, J P Nagar 2nd
phase, Bengaluru City, Karnaka, 560078",12.9105119,77.5928196
Basavanagudi,2018,Robbery,07-03-18,12:00,"300 Meters Away No.205, Opp.VET College, 12th Cross, J.P.Nagar 2nd Phase,
Bengaluru City, Karnaka, 560078",12.9074749,77.5904753
Basavanagudi,2018,Robbery,24-03-18,16:00,"In between 55 Wall Street J P Nagar 2d phase to, Jain collage, Jayanagar 9th
Block, Bengaluru City, Karnaka, 560078",12.9296592,77.5521606
Basavanagudi,2018,Robbery,11-05-18,22:00,"No-No-256,
Sarakki D.P,
Sarakki Ge,
Anjaneya swamy
Temple
Road,Kanakapura
Main Road, JP
Nagar 1st Phase ,
Bengaluru City ,
Karnaka-560078",12.9094322,77.5706543
Basavanagudi,2018,Robbery,12-07-18,21:10,"Near House No 1884, South End C Cross, Jayanagar 9th Block, Bengaluru City,
Karnaka, 560069",12.9159395,77.5922482
Basavanagudi,2018,Robbery,29-07-18,5:30,"Kalyan Venkeswar temple, cross,, J P Nagar 1st phase, Bengaluru City,
Karnaka, 560078",12.9106658,77.5759798
Basavanagudi,2018,Robbery,09-08-18,16:00,"Near Central Mall, Jayanagar 9th Block, J P Nagar, Bengaluru City, Karnaka,",12.9169723,77.5901235
Basavanagudi,2019,Robbery,01-02-19,22:55,"NO. 818, A3 room, 23rd main, 13th Cross,, J P Nagar 2nd phase, Bengaluru City,
Karnaka, 560078",12.9075378,77.5842326
Basavanagudi,2019,Robbery,12-03-19,16:30,"Near Chartered Mady Apartment, 17th Main, J.P.Nagar 2nd Phase, Bengaluru City,
Karnaka, 560078",12.9162687,77.5893259
Basavanagudi,2019,Robbery,06-04-19,4:15,"Near Karumaram Temple, Ragigudda, J P Nagar 2nd phase, Bengaluru City,
Karnaka, 560078",12.9142916,77.5909833
Basavanagudi,2019,Robbery,17-05-19,15:30,"INFRONT OF MEGHA TRAVELLS OFFICE,, 8TH MAIN, 14TH CROSS, JP
NAGAR 2ND PHASE, Bengaluru City, Karnaka, 560078",12.9069002,77.592889
Basavanagudi,2019,Robbery,13-06-19,19:00,"2nd A Cross,, J P NAGAR 2ND PHASE, Bengaluru City, Karnaka, 560078",12.9146676,77.5876323
Basavanagudi,2019,Robbery,14-11-19,18:30,"Opp. of Axis Bank, 24th main road, J P Nagar 2nd phase, Bengaluru City,
Karnaka, 560078",12.9166559,77.5836937
Basavanagudi,2015,Robbery,21-04-15,23:45,"No-45, 8th Main, 3rd Cross, RK Layput, BSK 2nd Stage B-70","12°54'58.78""N","77°33'37.87""E"
Basavanagudi,2015,Robbery,09-05-15,17:45,"In front No-101, 5th Cross, CT Bed, BSK 2nd Stage B-70","12°55'48.81""N","77°33'54.98""E"
Basavanagudi,2015,Robbery,13-09-15,19:30,"In frontOf Rasoi hotel TO Near Lakshmana Rao Park, BSK 2nd Stage B-70","12°55'32.44""N","77°33'51.19""E"
Basavanagudi,2016,Robbery,01-04-16,20:15,"Jayanagar 7th Block
west, 10th cross, 1st A main
road, Bengaluru City,","12°55'29.32""N","77°34'34.18""E"
Basavanagudi,2016,Robbery,31-07-16,22:30,"Beside of Banashankari
stop, Banashankari 2nd
Stage, Bengaluru City,","12°55'4.54""N","77°34'24.60""E"
Basavanagudi,2016,Robbery,27-09-16,13:00,"Monotype Banashankari
2nd Stage, 0, Bengaluru
City,","12°55'18.71""N","77°34'11.31""E"
Basavanagudi,2016,Robbery,17-10-16,2:00,"22nd Cross, Jecubz
Road, Banashankari 2nd
Stage, Bengaluru City,","12°55'34.59""N","77°33'44.40""E"
Basavanagudi,2016,Robbery,24-12-16,19:00,"no 89-41, 15th cross,
11th main, padma nabha
nagara, bsk 2nd stage,
Bengaluru City","12°55'6.47""N","77°33'23.65""E"
Basavanagudi,2016,Robbery,27-12-16,17:00,"In front of BMTC Bus
stop 30th main,,
Banashankari 2nd Stage,
Bengaluru City,","12°55'34.84""N","77°33'39.82""E"
Basavanagudi,2017,Robbery,18-09-17,11:30,"No-2921, 14th Cross,
Banashankari 2nd Stage,
Bengaluru City,
Karnaka-560070","38°57'33.85""N","95°15'55.75"""
Basavanagudi,2017,Robbery,17-10-17,7:10,"ICICI Bank M,
Padmanabhanagar, Near
Lakshmikanth Park,
Bengaluru City,","12°55'12.73""N","77°33'38.41""E"
Basavanagudi,2018,Robbery,12-04-18,13:40,"Bande Halla 3rd Cross
Kaverinagar, Banshankari
2nd stage, Bengaluru City,","12°55'6.93""N","77°34'24.80""E"
Basavanagudi,2018,Robbery,27-06-18,12:00,"In front Of Clinics,
No-150, 6th Cross,, 10th
Main, Shastry Nagar,
Bengaluru City,",12.967071,77.670484
Basavanagudi,2018,Robbery,09-10-16,20:00,"No 254.2nd Floor, 2nd
Main, Byarappa 2nd Block,
TR Nagar, Bengaluru City,",13.02075,75.592430.
Basavanagudi,2018,Robbery,25-10-18,11:30,"In front Of SLV Hotel, K R road TO Uttharahalli Road Kengeri Forest Bengaluru",12.94355,77.60976
Basavanagudi,2019,Robbery,06-06-19,12:30,"Near Banashankari
BMTC Bus Stop Uttarahalli
Main, Road \, BSK 2nd
Stage, Bengaluru City,",12.91166,77.5572
Basavanagudi,2019,Robbery,12-09-19,20:45,"9th Main, 30th Cross,
Banashankari 2nd Stage,
Bengaluru City,",12.92013,77.56925
Basavanagudi,2015,Robbery,09-10-15,0:35,Hosur Road Near Nimhans Hospital Bengaluru.,12.94046,77.597527
Basavanagudi,2016,Robbery,17-07-16,13:00,Opposite To R.V.Teachers Colege Jayanagar 2nd Block Bengaluru.,12.943567,77.580167
Basavanagudi,2016,Robbery,15-09-16,10:00,Near Rani sarala devi college Jayanagar 1st Block Bengaluru.,12.939297,77.585205
Basavanagudi,2016,Robbery,28-09-16,9:00,Near Metro Junction Lalbhagh West ge Bengaluru.,12.937969,77.580158
Basavanagudi,2017,Robbery,09-01-17,5:30,Lakkasandra Bus Stop Hosur Road Bengaluru.,12.943814,77.59715
Basavanagudi,2017,Robbery,01-02-17,20:15,Near ACE Fire Service refilling Center Arekempanahalli Jayanagar 1st Block Bengaluru.,12.947515,77.593908
Basavanagudi,2017,Robbery,23-02-17,1:00,"No 29, 2nd Cross, Near Andal Tempel Road Jayanagar 2nd Block Bengaluru.",12.942503,77.580992
Basavanagudi,2017,Robbery,27-05-17,14:45,Near Mallige Hospital Auto Stand Jayanagar 1st Block Bengaluru.,12.947859,77.592105
Basavanagudi,2017,Robbery,28-08-17,11:00,Near Mallige Hospital Jayanagar 1st Block Bengaluru.,12.947859,77.592105
Basavanagudi,2018,Robbery,06-01-18,20:00,Near Lakkasandra Busstop Hosur Road Bengaluru.,12.943814,77.59715
Basavanagudi,2018,Robbery,09-01-18,21:00,"Sri Rama Vidyalaya 9th main, 2nd Block Jayanagar Bengaluru.",12.938436,77.583998
Basavanagudi,2018,Robbery,17-01-18,20:00,"7th main, 2nd Cross 2nd Block jayanagar Bengaluru.",12.942646,77.581997
Basavanagudi,2018,Robbery,27-01-18,16:00,Near Lalbhagh Hopkoms Ge Hosur Road Bengaluru.,12.951453,77.590628
Basavanagudi,2018,Robbery,20-03-18,11:00,Near Ashoka pillar Jayanagar1st Block Bengaluru.,12.943639,77.58514
Basavanagudi,2018,Robbery,22-03-18,16:00,Near madhavan Park 1st Block Jayanagar Bengaluru.,12.936762,77.585131
Basavanagudi,2018,Robbery,28-03-18,23:00,Near Dairy Circle Hosur Road Bengaluru.,12.937108,77.601273
Basavanagudi,2018,Robbery,28-03-18,11:00,T.Mariyappa Road 1st Block Jayanagar Bengaluru.,12.938445,77.58516
Basavanagudi,2018,Robbery,28-03-18,21:00,Near Manthri pride Appartment 1st Block Jayanagar Bengaluru.,12.936003,77.58669
Basavanagudi,2018,Robbery,27-04-18,21:00,"No 71, 8th main, Jayanagar 2nd Block Bengaluru.",12.941563,77.582748
Basavanagudi,2018,Robbery,04-07-18,22:00,Near Rani sarala devi college Jayanagar 1st Block Bengaluru.,12.939297,77.585205
Basavanagudi,2019,Robbery,08-02-19,9:00,Near Madavan Park Jayanagar 1st Block Bengaluru.,12.936003,77.58669
Basavanagudi,2019,Robbery,22-02-19,12:10,"No 348, 12th cross, 7th main, 2nd Block Jayanagar Bengaluru.",12.942646,77.581997
Basavanagudi,2019,Robbery,13-03-19,12:30,Near Indira Canteen Byrasandra 1st Block Jayanagar Bengaluru.,12.936049,77.592597
Basavanagudi,2019,Robbery,25-03-19,20:35,Vambe Qtrs Siddapura 1st Block Jayanagar Bengaluru.,12.945058,77.591578
Basavanagudi,2019,Robbery,07-04-19,12:00,Near ABCD Park 1st Block Jayanagar Bengaluru.,12.94576,77.587228
Basavanagudi,2019,Robbery,18-05-19,11:00,Lalbhagh Westge Metro Stion Bengaluru.,12.947913,77.580038
Basavanagudi,2019,Robbery,27-06-19,1:00,Near Kidwai Hospital Hosur Road Bengaluru.,12.937956,77.598712
Basavanagudi,2019,Robbery,10-07-19,15:00,Near Lakkasandra Busstop Hosur Road Bengaluru.,12.943814,77.59715
Basavanagudi,2019,Robbery,18-12-19,16:30,Near Café Cofee Day Ashoka Pillar 2nd Block Jayanagar Bengaluru.,12.942884,77.585104
Basavanagudi,2015,Robbery,25-05-15,0:20,NANDAKUMAR LAYOUT BENGALORE CITY,12.91386713,77.54283946
Basavanagudi,2015,Robbery,23-07-15,23:00,KONANNAKUNTE CROSS BENGALORE CITY,12.88563257,77.5482591
Basavanagudi,2015,Robbery,23-07-15,21:00,NARAYANNA NAGARA TEMPLE DABBLE ROAD BENGALORE CITY,12.90953512,77.55714236
Basavanagudi,2015,Robbery,13-09-15,21:00,KONANNAKUTE HARI NAGAR CROSS BENGALORE CITY,12.88168725,77.56585586
Basavanagudi,2015,Robbery,29-10-15,12:50,SUBRAMANYA NAGAR KONANNAKUNTE BENGALORE CITY,12.88496438,77.55767556
Basavanagudi,2016,Robbery,20-04-16,10:30,NEAR PACHAMUKKI TEMPLE BEST CLAB ROAD BENGALORE CITY,12.91242457,77.53558039
Basavanagudi,2016,Robbery,29-04-16,10:40,DODDAKALASANDRA BENGALORE CITY,12.88211726,77.55729374
Basavanagudi,2016,Robbery,09-06-16,19:45,HARINAGAR BENGALORE CITY,12.87915064,77.57683666
Basavanagudi,2016,Robbery,15-12-16,22:15,ICIC BANK OPP UTTARAHALLI MAIN ROAD BENGALORE CITY,12.90711393,77.5439924
Basavanagudi,2016,Robbery,15-12-16,22:45,CHIKKALASANDRA BENGALORE CITY,12.91590055,77.54746898
Basavanagudi,2017,Robbery,01-08-17,11:45,SRINIVAS TAKES OPP TALLAKAIES ROAD CHIKKAGOWDANPALYA BENGALORE CITY,12.88255509,77.5563552
Basavanagudi,2017,Robbery,18-09-17,23:40,PP LAYOUT UTTARAHALLI BENGALORE CITY,12.9057223,77.53558126
Basavanagudi,2017,Robbery,27-09-17,21:30,NEAR LAKSHAMI TEMPLE VALABHANAGAR BENGALORE CITY,12.89108917,77.55497675
Basavanagudi,2017,Robbery,05-10-17,17:30,SHARADHA NAGAR PIPELINE ROAD BENGALORE CITY,12.91132338,77.55697184
Basavanagudi,2018,Robbery,18-04-18,6:20,19TH CROSS PP LAYOUT BENGALORE CITY,12.9066004,77.53756529
Basavanagudi,2019,Robbery,22-05-19,2:30,"OPPOSITE SUPURVA HOSPITAL NEAR GURU MEDICAL SHOP,
KONANAKUNTE CROSS, Bengaluru City, Karnaka, 560061",,77.54861884
Basavanagudi,2019,Robbery,31-05-19,23:50,"NEAR RAMANJANEYA PARK OPPOSITE BAKARY, RAMANJANEYA NAGARA CHIKKALLASANDRA, BENGALURU.",12.88056739,77.56692379
Basavanagudi,2015,Robbery,10-02-15,22:00,"Varna Royal Bakery, Kembahalli, Bangalore.",12.859828,77.56893
Basavanagudi,2015,Robbery,10-02-15,22:30,"SV Bar, & resort, Kembahalli, Bangalore.",12.859653,77.569358
Basavanagudi,2015,Robbery,25-05-15,3:00,"Front Of Eid-Gah Masji, Avalahalli, Bangalore.",12.873803,77.561605
Basavanagudi,2015,Robbery,06-06-15,9:00,"Near RLF club House, Near Nandi Garden, Avalahalli, Bnagalore.",12.870523,77.569048
Basavanagudi,2015,Robbery,19-12-15,23:00,"Near Nice Toll, Bannerughta Main Road, Bangalore.",12.857031,77.530484
